Zip;City;State;Latitude;Longitude;Timezone;Daylight savings time flag;geopoint
14043;Depew;NY;42.904958;-78.7006;-5;1;42.904958,-78.7006
13827;Owego;NY;42.120274;-76.25874;-5;1;42.120274,-76.25874
14739;Friendship;NY;42.192384;-78.14308;-5;1;42.192384,-78.14308
11703;North Babylon;NY;40.733398;-73.32257;-5;1;40.733398,-73.32257
11707;West Babylon;NY;40.922326;-72.637078;-5;1;40.922326,-72.637078
12442;Hunter;NY;42.222061;-74.23418;-5;1;42.222061,-74.23418
13334;Eaton;NY;42.83917;-75.65482;-5;1;42.83917,-75.65482
13626;Copenhagen;NY;43.859025;-75.72942;-5;1;43.859025,-75.72942
10965;Pearl River;NY;41.063329;-74.01734;-5;1;41.063329,-74.01734
12151;Round Lake;NY;42.932326;-73.79363;-5;1;42.932326,-73.79363
12195;West Lebanon;NY;42.479384;-73.474809;-5;1;42.479384,-73.474809
14617;Rochester;NY;43.223213;-77.59721;-5;1;43.223213,-77.59721
11716;Bohemia;NY;40.770042;-73.11376;-5;1;40.770042,-73.11376
12719;Barryville;NY;41.480326;-74.92694;-5;1;41.480326,-74.92694
13479;Washington Mills;NY;43.053769;-75.271559;-5;1;43.053769,-75.271559
10072;New York;NY;40.780751;-73.977182;-5;1;40.780751,-73.977182
10166;New York;NY;40.754591;-73.976238;-5;1;40.754591,-73.976238
10998;Westtown;NY;41.334034;-74.54593;-5;1;41.334034,-74.54593
11560;Locust Valley;NY;40.881957;-73.59417;-5;1;40.881957,-73.59417
14150;Tonawanda;NY;43.001907;-78.8631;-5;1;43.001907,-78.8631
12197;Worcester;NY;42.610314;-74.72401;-5;1;42.610314,-74.72401
13147;Scipio Center;NY;42.774714;-76.57045;-5;1;42.774714,-76.57045
12771;Port Jervis;NY;41.374734;-74.66315;-5;1;41.374734,-74.66315
12810;Athol;NY;43.484741;-73.89151;-5;1;43.484741,-73.89151
13350;Herkimer;NY;43.038149;-74.9846;-5;1;43.038149,-74.9846
13655;Hogansburg;NY;44.98184;-74.67374;-5;1;44.98184,-74.67374
13788;Hobart;NY;42.368357;-74.66452;-5;1;42.368357,-74.66452
14717;Caneadea;NY;42.37074;-78.19335;-5;1;42.37074,-78.19335
13459;Sharon Springs;NY;42.774077;-74.58404;-5;1;42.774077,-74.58404
14642;Rochester;NY;43.286024;-77.684264;-5;1;43.286024,-77.684264
10986;Tomkins Cove;NY;41.271543;-73.98676;-5;1;41.271543,-73.98676
11763;Medford;NY;40.820786;-72.98375;-5;1;40.820786,-72.98375
12139;Piseco;NY;43.40276;-74.56972;-5;1;43.40276,-74.56972
12509;La Grange;NY;41.643599;-73.847176;-5;1;41.643599,-73.847176
13503;Utica;NY;43.101869;-75.231158;-5;1;43.101869,-75.231158
13135;Phoenix;NY;43.235916;-76.31339;-5;1;43.235916,-76.31339
14301;Niagara Falls;NY;43.096555;-79.03925;-5;1;43.096555,-79.03925
13082;Kirkville;NY;43.099547;-75.9619;-5;1;43.099547,-75.9619
10506;Bedford;NY;41.195778;-73.62777;-5;1;41.195778,-73.62777
13312;Brantingham;NY;43.689564;-75.27252;-5;1;43.689564,-75.27252
12789;Woodridge;NY;41.708062;-74.5698;-5;1;41.708062,-74.5698
14472;Honeoye Falls;NY;42.964593;-77.5919;-5;1;42.964593,-77.5919
11783;Seaford;NY;40.679752;-73.48959;-5;1;40.679752,-73.48959
12245;Albany;NY;42.614852;-73.970812;-5;1;42.614852,-73.970812
12861;Putnam Station;NY;43.74531;-73.41569;-5;1;43.74531,-73.41569
13860;West Davenport;NY;42.183045;-74.925617;-5;1;42.183045,-74.925617
14612;Rochester;NY;43.256462;-77.66183;-5;1;43.256462,-77.66183
13840;Smithboro;NY;42.039512;-76.400376;-5;1;42.039512,-76.400376
14754;Little Genesee;NY;42.020028;-78.20368;-5;1;42.020028,-78.20368
14901;Elmira;NY;42.091924;-76.79217;-5;1;42.091924,-76.79217
12305;Schenectady;NY;42.814476;-73.94337;-5;1;42.814476,-73.94337
12402;Kingston;NY;41.878801;-74.345684;-5;1;41.878801,-74.345684
13843;South New Berlin;NY;42.533274;-75.38008;-5;1;42.533274,-75.38008
10607;White Plains;NY;41.041191;-73.80953;-5;1;41.041191,-73.80953
13664;Morristown;NY;44.585561;-75.64797;-5;1;44.585561,-75.64797
14482;Le Roy;NY;42.979887;-77.97053;-5;1;42.979887,-77.97053
14214;Buffalo;NY;42.941407;-78.83741;-5;1;42.941407,-78.83741
10268;New York;NY;40.780751;-73.977182;-5;1;40.780751,-73.977182
10917;Central Valley;NY;41.322344;-74.12354;-5;1;41.322344,-74.12354
12784;Thompsonville;NY;41.676139;-74.6217;-5;1;41.676139,-74.6217
13104;Manlius;NY;42.987329;-75.96763;-5;1;42.987329,-75.96763
13208;Syracuse;NY;43.074566;-76.14747;-5;1;43.074566,-76.14747
10547;Mohegan Lake;NY;41.314676;-73.85118;-5;1;41.314676,-73.85118
11937;East Hampton;NY;40.995384;-72.18564;-5;1;40.995384,-72.18564
12527;Glenham;NY;41.520249;-73.933259;-5;1;41.520249,-73.933259
13658;Lisbon;NY;44.744462;-75.28123;-5;1;44.744462,-75.28123
13688;South Rutland;NY;43.951666;-75.767772;-5;1;43.951666,-75.767772
14138;South Dayton;NY;42.372077;-79.05552;-5;1;42.372077,-79.05552
12233;Albany;NY;42.614852;-73.970812;-5;1;42.614852,-73.970812
12515;Clintondale;NY;41.681096;-74.06421;-5;1;41.681096,-74.06421
13638;Felts Mills;NY;44.021094;-75.76113;-5;1;44.021094,-75.76113
14054;East Bethany;NY;42.903676;-78.13481;-5;1;42.903676,-78.13481
13333;East Springfield;NY;42.843048;-74.80882;-5;1;42.843048,-74.80882
13820;Oneonta;NY;42.469761;-75.05192;-5;1;42.469761,-75.05192
14437;Dansville;NY;42.576771;-77.71925;-5;1;42.576771,-77.71925
14506;Mendon;NY;42.999201;-77.50263;-5;1;42.999201,-77.50263
14606;Rochester;NY;43.168062;-77.68132;-5;1;43.168062,-77.68132
14737;Franklinville;NY;42.335628;-78.43114;-5;1;42.335628,-78.43114
12075;Ghent;NY;42.305793;-73.6514;-5;1;42.305793,-73.6514
12489;Wawarsing;NY;41.757766;-74.35392;-5;1;41.757766,-74.35392
12418;Cornwallville;NY;42.357579;-74.15136;-5;1;42.357579,-74.15136
13133;Colesville;NY;42.216968;-75.724015;-5;1;42.216968,-75.724015
11417;Ozone Park;NY;40.675534;-73.84476;-5;1;40.675534,-73.84476
10940;Middletown;NY;41.449364;-74.43951;-5;1;41.449364,-74.43951
12930;Dickinson Center;NY;44.731571;-74.53485;-5;1;44.731571,-74.53485
14228;Buffalo;NY;43.023347;-78.79494;-5;1;43.023347,-78.79494
10706;Hastings On Hudson;NY;40.992084;-73.8729;-5;1;40.992084,-73.8729
13851;Vestal;NY;42.206745;-75.74488;-5;1;42.206745,-75.74488
13202;Syracuse;NY;43.045066;-76.14994;-5;1;43.045066,-76.14994
14602;Rochester;NY;43.286024;-77.684264;-5;1;43.286024,-77.684264
13217;Syracuse;NY;43.02143;-76.197701;-5;1;43.02143,-76.197701
12593;West Copake;NY;42.243991;-73.641076;-5;1;42.243991,-73.641076
11050;Port Washington;NY;40.833246;-73.69309;-5;1;40.833246,-73.69309
11418;Richmond Hill;NY;40.698485;-73.83365;-5;1;40.698485,-73.83365
11746;Huntington Station;NY;40.821698;-73.37553;-5;1;40.821698,-73.37553
13733;Bainbridge;NY;42.292692;-75.47528;-5;1;42.292692,-75.47528
12737;Glen Spey;NY;41.48397;-74.81186;-5;1;41.48397,-74.81186
11756;Levittown;NY;40.724883;-73.51739;-5;1;40.724883,-73.51739
11792;Wading River;NY;40.953261;-72.8368;-5;1;40.953261,-72.8368
10650;White Plains;NY;41.013696;-73.705975;-5;1;41.013696,-73.705975
12967;North Lawrence;NY;44.784144;-74.66213;-5;1;44.784144,-74.66213
13026;Aurora;NY;42.758088;-76.66998;-5;1;42.758088,-76.66998
14168;Versailles;NY;42.509271;-78.999471;-5;1;42.509271,-78.999471
10910;Arden;NY;41.386195;-74.125718;-5;1;41.386195,-74.125718
13649;Helena;NY;44.921678;-74.706763;-5;1;44.921678,-74.706763
14006;Angola;NY;42.633375;-79.04567;-5;1;42.633375,-79.04567
13812;Nichols;NY;42.024157;-76.36558;-5;1;42.024157,-76.36558
12050;Columbiaville;NY;42.317154;-73.748555;-5;1;42.317154,-73.748555
12252;Albany;NY;42.614852;-73.970812;-5;1;42.614852,-73.970812
14572;Wayland;NY;42.569876;-77.57637;-5;1;42.569876,-77.57637
12239;Albany;NY;42.614852;-73.970812;-5;1;42.614852,-73.970812
12734;Ferndale;NY;41.734913;-74.75013;-5;1;41.734913,-74.75013
13143;Red Creek;NY;43.235909;-76.71545;-5;1;43.235909,-76.71545
14273;Buffalo;NY;42.75495;-78.784908;-5;1;42.75495,-78.784908
12883;Ticonderoga;NY;43.858226;-73.45414;-5;1;43.858226,-73.45414
13354;Holland Patent;NY;43.261526;-75.25705;-5;1;43.261526,-75.25705
12863;Rock City Falls;NY;43.067531;-73.93002;-5;1;43.067531,-73.93002
14781;Sherman;NY;42.160982;-79.59738;-5;1;42.160982,-79.59738
12748;Jeffersonville;NY;41.774223;-74.92211;-5;1;41.774223,-74.92211
11743;Huntington;NY;40.867498;-73.41146;-5;1;40.867498,-73.41146
12801;Glens Falls;NY;43.312104;-73.64825;-5;1;43.312104,-73.64825
13610;Rodman;NY;43.818705;-75.480342;-5;1;43.818705,-75.480342
11944;Greenport;NY;41.103838;-72.36729;-5;1;41.103838,-72.36729
12701;Monticello;NY;41.653071;-74.69748;-5;1;41.653071,-74.69748
10992;Washingtonville;NY;41.428269;-74.16178;-5;1;41.428269,-74.16178
14113;North Java;NY;42.672162;-78.33745;-5;1;42.672162,-78.33745
14771;Canadice;NY;42.737181;-77.519784;-5;1;42.737181,-77.519784
14788;Westons Mills;NY;42.062125;-78.377974;-5;1;42.062125,-78.377974
10964;Palisades;NY;41.011464;-73.92585;-5;1;41.011464,-73.92585
12740;Grahamsville;NY;41.85304;-74.52915;-5;1;41.85304,-74.52915
12779;South Fallsburg;NY;41.705649;-74.62985;-5;1;41.705649,-74.62985
11043;New Hyde Park;NY;40.754757;-73.601772;-5;1;40.754757,-73.601772
13813;Nineveh;NY;42.163814;-75.55149;-5;1;42.163814,-75.55149
11210;Brooklyn;NY;40.627946;-73.94552;-5;1;40.627946,-73.94552
10012;New York;NY;40.72596;-73.99834;-5;1;40.72596,-73.99834
12008;Alplaus;NY;42.853043;-73.9029;-5;1;42.853043,-73.9029
12747;Hurleyville;NY;41.752458;-74.66996;-5;1;41.752458,-74.66996
10094;New York;NY;40.780751;-73.977182;-5;1;40.780751,-73.977182
10259;New York;NY;40.780751;-73.977182;-5;1;40.780751,-73.977182
12458;Napanoch;NY;41.802898;-74.40025;-5;1;41.802898,-74.40025
14048;Dunkirk;NY;42.479471;-79.32805;-5;1;42.479471,-79.32805
13740;Bovina Center;NY;42.274238;-74.75464;-5;1;42.274238,-74.75464
14814;Big Flats;NY;42.150834;-76.94805;-5;1;42.150834,-76.94805
10308;Staten Island;NY;40.551353;-74.15098;-5;1;40.551353,-74.15098
13694;Waddington;NY;44.866754;-75.17201;-5;1;44.866754,-75.17201
14030;Chaffee;NY;42.562386;-78.49087;-5;1;42.562386,-78.49087
14129;Perrysburg;NY;42.469165;-79.01069;-5;1;42.469165,-79.01069
14726;Conewango Valley;NY;42.251075;-79.03785;-5;1;42.251075,-79.03785
11030;Manhasset;NY;40.796752;-73.68935;-5;1;40.796752,-73.68935
12023;Berne;NY;42.610306;-74.15692;-5;1;42.610306,-74.15692
12222;Albany;NY;42.692909;-73.838035;-5;1;42.692909,-73.838035
10502;Ardsley;NY;41.011324;-73.84152;-5;1;41.011324,-73.84152
12777;Forestburgh;NY;41.562141;-74.71252;-5;1;41.562141,-74.71252
14753;Limestone;NY;42.035792;-78.61789;-5;1;42.035792,-78.61789
10039;New York;NY;40.826181;-73.9371;-5;1;40.826181,-73.9371
12456;Mount Marion;NY;42.034256;-73.99876;-5;1;42.034256,-73.99876
14425;Farmington;NY;42.985007;-77.346;-5;1;42.985007,-77.346
11372;Jackson Heights;NY;40.750146;-73.88433;-5;1;40.750146,-73.88433
14590;Wolcott;NY;43.234753;-76.8252;-5;1;43.234753,-76.8252
12183;Troy;NY;42.743289;-73.69482;-5;1;42.743289,-73.69482
13319;Chadwicks;NY;43.029669;-75.27211;-5;1;43.029669,-75.27211
11582;Valley Stream;NY;40.754757;-73.601772;-5;1;40.754757,-73.601772
13625;Colton;NY;44.537321;-74.92847;-5;1;44.537321,-74.92847
12782;Sundown;NY;41.881485;-74.430063;-5;1;41.881485,-74.430063
13437;Redfield;NY;43.572876;-75.81709;-5;1;43.572876,-75.81709
11367;Flushing;NY;40.728614;-73.82145;-5;1;40.728614,-73.82145
12434;Grand Gorge;NY;42.368009;-74.50137;-5;1;42.368009,-74.50137
13425;Oriskany Falls;NY;42.964774;-75.47889;-5;1;42.964774,-75.47889
13309;Boonville;NY;43.484783;-75.33559;-5;1;43.484783,-75.33559
12767;Obernburg;NY;41.719016;-74.755373;-5;1;41.719016,-74.755373
13477;Vernon Center;NY;43.035057;-75.50381;-5;1;43.035057,-75.50381
10138;New York;NY;40.780751;-73.977182;-5;1;40.780751,-73.977182
10160;New York;NY;40.780751;-73.977182;-5;1;40.780751,-73.977182
12181;Troy;NY;42.738678;-73.673862;-5;1;42.738678,-73.673862
06390;Fishers Island;NY;41.261936;-72.00708;-5;1;41.261936,-72.00708
14712;Bemus Point;NY;42.170787;-79.37689;-5;1;42.170787,-79.37689
10925;Greenwood Lake;NY;41.211794;-74.29778;-5;1;41.211794,-74.29778
12083;Greenville;NY;42.430684;-74.03728;-5;1;42.430684,-74.03728
13845;Tioga Center;NY;42.065842;-76.381946;-5;1;42.065842,-76.381946
14080;Holland;NY;42.640351;-78.53494;-5;1;42.640351,-78.53494
12055;Dormansville;NY;42.614852;-73.970812;-5;1;42.614852,-73.970812
14650;Rochester;NY;43.286024;-77.684264;-5;1;43.286024,-77.684264
12167;Stamford;NY;42.414519;-74.59577;-5;1;42.414519,-74.59577
12751;Kiamesha Lake;NY;41.679152;-74.657;-5;1;41.679152,-74.657
11971;Southold;NY;41.059209;-72.42041;-5;1;41.059209,-72.42041
13426;Orwell;NY;43.562757;-75.996773;-5;1;43.562757,-75.996773
10422;New York;NY;40.828279;-73.869454;-5;1;40.828279,-73.869454
12092;Howes Cave;NY;42.691779;-74.37513;-5;1;42.691779,-74.37513
12243;Albany;NY;42.614852;-73.970812;-5;1;42.614852,-73.970812
14511;Mumford;NY;43.002612;-77.86458;-5;1;43.002612,-77.86458
12435;Greenfield Park;NY;41.725808;-74.52106;-5;1;41.725808,-74.52106
12847;Long Lake;NY;43.97643;-74.56669;-5;1;43.97643,-74.56669
13111;Martville;NY;43.258952;-76.61441;-5;1;43.258952,-76.61441
14839;Greenwood;NY;42.129806;-77.63705;-5;1;42.129806,-77.63705
10918;Chester;NY;41.35648;-74.26072;-5;1;41.35648,-74.26072
11211;Brooklyn;NY;40.71209;-73.95427;-5;1;40.71209,-73.95427
12482;South Cairo;NY;42.270559;-73.95729;-5;1;42.270559,-73.95729
13115;Minetto;NY;43.397671;-76.482365;-5;1;43.397671,-76.482365
13417;New York Mills;NY;43.102469;-75.29566;-5;1;43.102469,-75.29566
14770;Portville;NY;42.047063;-78.30659;-5;1;42.047063,-78.30659
11695;Far Rockaway;NY;40.651378;-73.870779;-5;1;40.651378,-73.870779
12759;Loch Sheldrake;NY;41.780299;-74.65618;-5;1;41.780299,-74.65618
13360;Inlet;NY;43.744906;-74.77476;-5;1;43.744906,-74.77476
10570;Pleasantville;NY;41.132367;-73.78922;-5;1;41.132367,-73.78922
12758;Livingston Manor;NY;41.920201;-74.7857;-5;1;41.920201,-74.7857
13157;Sylvan Beach;NY;43.209147;-75.72307;-5;1;43.209147,-75.72307
14134;Sardinia;NY;42.534854;-78.52113;-5;1;42.534854,-78.52113
12427;Elka Park;NY;42.167622;-74.15306;-5;1;42.167622,-74.15306
10149;New York;NY;40.780751;-73.977182;-5;1;40.780751,-73.977182
10602;White Plains;NY;41.119008;-73.732996;-5;1;41.119008,-73.732996
11238;Brooklyn;NY;40.680145;-73.96257;-5;1;40.680145,-73.96257
11727;Coram;NY;40.884895;-73.00501;-5;1;40.884895,-73.00501
13621;Chase Mills;NY;44.850439;-75.06915;-5;1;44.850439,-75.06915
14430;Clarkson;NY;43.286024;-77.684264;-5;1;43.286024,-77.684264
10538;Larchmont;NY;40.933089;-73.75615;-5;1;40.933089,-73.75615
13061;Erieville;NY;42.859332;-75.74261;-5;1;42.859332,-75.74261
14741;Great Valley;NY;42.220602;-78.6337;-5;1;42.220602,-78.6337
12724;Callicoon Center;NY;41.858278;-74.95034;-5;1;41.858278,-74.95034
13493;Williamstown;NY;43.421597;-75.90529;-5;1;43.421597,-75.90529
13617;Canton;NY;44.58249;-75.14417;-5;1;44.58249,-75.14417
10040;New York;NY;40.858704;-73.92853;-5;1;40.858704,-73.92853
10017;New York;NY;40.752159;-73.97231;-5;1;40.752159,-73.97231
10099;New York;NY;40.780751;-73.977182;-5;1;40.780751,-73.977182
11960;Remsenburg;NY;40.803923;-72.70421;-5;1;40.803923,-72.70421
13650;Henderson;NY;43.82212;-76.2127;-5;1;43.82212,-76.2127
14219;Buffalo;NY;42.790708;-78.82717;-5;1;42.790708,-78.82717
14872;Pine Valley;NY;42.218224;-76.84694;-5;1;42.218224,-76.84694
10286;New York;NY;40.714231;-74.011895;-5;1;40.714231,-74.011895
12230;Albany;NY;42.614852;-73.970812;-5;1;42.614852,-73.970812
13697;Winthrop;NY;44.755383;-74.81213;-5;1;44.755383,-74.81213
14063;Fredonia;NY;42.425683;-79.3371;-5;1;42.425683,-79.3371
13090;Liverpool;NY;43.152017;-76.22068;-5;1;43.152017,-76.22068
13757;East Meredith;NY;42.411895;-74.91372;-5;1;42.411895,-74.91372
14413;Alton;NY;43.222735;-76.982149;-5;1;43.222735,-76.982149
11360;Bayside;NY;40.780386;-73.78005;-5;1;40.780386,-73.78005
14215;Buffalo;NY;42.934757;-78.8118;-5;1;42.934757,-78.8118
11042;New Hyde Park;NY;40.760128;-73.69379;-5;1;40.760128,-73.69379
11542;Glen Cove;NY;40.864757;-73.62609;-5;1;40.864757,-73.62609
13156;Sterling;NY;43.337718;-76.6729;-5;1;43.337718,-76.6729
12309;Schenectady;NY;42.800276;-73.88096;-5;1;42.800276,-73.88096
10162;New York;NY;40.769334;-73.94893;-5;1;40.769334,-73.94893
14740;Gerry;NY;42.230692;-79.17185;-5;1;42.230692,-79.17185
13848;Tunnel;NY;42.214705;-75.727699;-5;1;42.214705,-75.727699
13850;Vestal;NY;42.075874;-76.02837;-5;1;42.075874,-76.02837
11218;Brooklyn;NY;40.644552;-73.97595;-5;1;40.644552,-73.97595
12776;Roscoe;NY;41.94836;-74.94475;-5;1;41.94836,-74.94475
12406;Arkville;NY;42.130111;-74.57574;-5;1;42.130111,-74.57574
12460;Oak Hill;NY;42.406464;-74.15692;-5;1;42.406464,-74.15692
14809;Avoca;NY;42.419988;-77.43392;-5;1;42.419988,-77.43392
12494;West Shokan;NY;41.961316;-74.27687;-5;1;41.961316,-74.27687
12432;Glasco;NY;41.949795;-74.003246;-5;1;41.949795,-74.003246
13450;Roseboom;NY;42.69983;-74.81731;-5;1;42.69983,-74.81731
14270;Buffalo;NY;42.768413;-78.887094;-5;1;42.768413,-78.887094
10528;Harrison;NY;40.972667;-73.71886;-5;1;40.972667,-73.71886
12196;West Sand Lake;NY;42.631625;-73.61619;-5;1;42.631625,-73.61619
13123;North Bay;NY;43.236407;-75.776918;-5;1;43.236407,-75.776918
14083;Java Village;NY;42.676913;-78.44075;-5;1;42.676913,-78.44075
14476;Kendall;NY;43.339304;-78.02581;-5;1;43.339304,-78.02581
12463;Palenville;NY;42.174411;-74.01599;-5;1;42.174411,-74.01599
12958;Mooers;NY;44.958106;-73.58022;-5;1;44.958106,-73.58022
13615;Brownville;NY;44.005613;-75.98315;-5;1;44.005613,-75.98315
14141;Springville;NY;42.516248;-78.68944;-5;1;42.516248,-78.68944
14167;Varysburg;NY;42.750175;-78.32283;-5;1;42.750175,-78.32283
14623;Rochester;NY;43.087613;-77.6352;-5;1;43.087613,-77.6352
13864;Willseyville;NY;42.298203;-76.38844;-5;1;42.298203,-76.38844
14876;Reading Center;NY;42.429721;-76.925846;-5;1;42.429721,-76.925846
11233;Brooklyn;NY;40.676938;-73.91858;-5;1;40.676938,-73.91858
12051;Coxsackie;NY;42.353773;-73.82774;-5;1;42.353773,-73.82774
14061;Farnham;NY;42.594627;-79.08404;-5;1;42.594627,-79.08404
14645;Rochester;NY;43.286024;-77.684264;-5;1;43.286024,-77.684264
12024;Brainard;NY;42.494981;-73.510676;-5;1;42.494981,-73.510676
13362;Knoxboro;NY;42.980334;-75.518569;-5;1;42.980334,-75.518569
13835;Richford;NY;42.396659;-76.15709;-5;1;42.396659,-76.15709
12825;Queensbury;NY;42.973468;-74.406393;-5;1;42.973468,-74.406393
14626;Rochester;NY;43.214613;-77.70626;-5;1;43.214613,-77.70626
12438;Halcottsville;NY;42.183045;-74.925617;-5;1;42.183045,-74.925617
12538;Hyde Park;NY;41.779541;-73.90155;-5;1;41.779541,-73.90155
13809;Mount Upton;NY;42.392104;-75.41093;-5;1;42.392104,-75.41093
10981;Sugar Loaf;NY;41.323172;-74.288565;-5;1;41.323172,-74.288565
14443;East Bloomfield;NY;42.900966;-77.42331;-5;1;42.900966,-77.42331
14414;Avon;NY;42.899233;-77.73372;-5;1;42.899233,-77.73372
10562;Ossining;NY;41.176837;-73.84741;-5;1;41.176837,-73.84741
14226;Buffalo;NY;42.968057;-78.80047;-5;1;42.968057,-78.80047
12175;Summit;NY;42.559096;-74.55282;-5;1;42.559096,-74.55282
13072;Georgetown;NY;42.763823;-75.75188;-5;1;42.763823,-75.75188
11731;East Northport;NY;40.865998;-73.31796;-5;1;40.865998,-73.31796
14170;West Falls;NY;42.692304;-78.67147;-5;1;42.692304,-78.67147
12208;Albany;NY;42.654978;-73.80053;-5;1;42.654978,-73.80053
12182;Troy;NY;42.785887;-73.66221;-5;1;42.785887,-73.66221
11368;Corona;NY;40.747106;-73.85838;-5;1;40.747106,-73.85838
11697;Breezy Point;NY;40.560167;-73.90891;-5;1;40.560167,-73.90891
12164;Speculator;NY;43.515611;-74.37431;-5;1;43.515611,-74.37431
12514;Clinton Corners;NY;41.874183;-73.76727;-5;1;41.874183,-73.76727
13316;Camden;NY;43.377083;-75.74261;-5;1;43.377083,-75.74261
10560;North Salem;NY;41.32797;-73.61306;-5;1;41.32797,-73.61306
14885;Troupsburg;NY;42.041973;-77.5632;-5;1;42.041973,-77.5632
12015;Athens;NY;42.279649;-73.81701;-5;1;42.279649,-73.81701
11222;Brooklyn;NY;40.726302;-73.94559;-5;1;40.726302,-73.94559
11252;Brooklyn;NY;40.645099;-73.945032;-5;1;40.645099,-73.945032
13630;De Kalb Junction;NY;44.494708;-75.29944;-5;1;44.494708,-75.29944
12570;Poughquag;NY;41.614667;-73.67709;-5;1;41.614667,-73.67709
13753;Delhi;NY;42.302716;-74.91667;-5;1;42.302716,-74.91667
14481;Leicester;NY;42.780121;-77.91499;-5;1;42.780121,-77.91499
13611;Belleville;NY;43.778046;-76.125914;-5;1;43.778046,-76.125914
14840;Hammondsport;NY;42.453547;-77.18019;-5;1;42.453547,-77.18019
12836;Hague;NY;43.750773;-73.51881;-5;1;43.750773,-73.51881
13428;Palatine Bridge;NY;42.923583;-74.55536;-5;1;42.923583,-74.55536
14047;Derby;NY;42.694598;-78.98151;-5;1;42.694598,-78.98151
12465;Pine Hill;NY;42.136293;-74.473639;-5;1;42.136293,-74.473639
13163;Wampsville;NY;43.078461;-75.701639;-5;1;43.078461,-75.701639
13904;Binghamton;NY;42.110927;-75.85223;-5;1;42.110927,-75.85223
13654;Heuvelton;NY;44.563604;-75.48794;-5;1;44.563604,-75.48794
10466;Bronx;NY;40.89095;-73.84702;-5;1;40.89095,-73.84702
12065;Clifton Park;NY;42.853676;-73.78445;-5;1;42.853676,-73.78445
12416;Chichester;NY;42.105611;-74.29143;-5;1;42.105611,-74.29143
13139;Poplar Ridge;NY;42.742057;-76.628454;-5;1;42.742057,-76.628454
11732;East Norwich;NY;40.848766;-73.53478;-5;1;40.848766,-73.53478
11739;Great River;NY;40.922326;-72.637078;-5;1;40.922326,-72.637078
13388;Webb;NY;43.606444;-75.103186;-5;1;43.606444,-75.103186
12407;Ashland;NY;42.321453;-74.33926;-5;1;42.321453,-74.33926
12733;Fallsburg;NY;41.732505;-74.60896;-5;1;41.732505,-74.60896
12185;Valley Falls;NY;42.884779;-73.53703;-5;1;42.884779,-73.53703
12474;Roxbury;NY;42.285644;-74.59011;-5;1;42.285644,-74.59011
10962;Orangeburg;NY;41.047996;-73.96215;-5;1;41.047996,-73.96215
12938;Pleasant Valley;NY;41.773053;-73.856116;-5;1;41.773053,-73.856116
13635;Edwards;NY;44.314998;-75.26149;-5;1;44.314998,-75.26149
13790;Johnson City;NY;42.125725;-75.96686;-5;1;42.125725,-75.96686
10550;Mount Vernon;NY;40.907607;-73.83709;-5;1;40.907607,-73.83709
10915;Bullville;NY;41.555634;-74.328805;-5;1;41.555634,-74.328805
13166;Weedsport;NY;43.056292;-76.5563;-5;1;43.056292,-76.5563
14433;Clyde;NY;43.07351;-76.87557;-5;1;43.07351,-76.87557
11733;East Setauket;NY;40.932053;-73.10666;-5;1;40.932053,-73.10666
12159;Slingerlands;NY;42.646978;-73.87151;-5;1;42.646978,-73.87151
12249;Albany;NY;42.614852;-73.970812;-5;1;42.614852,-73.970812
10123;New York;NY;40.751489;-73.990537;-5;1;40.751489,-73.990537
10946;Wallkill;NY;41.507236;-74.412119;-5;1;41.507236,-74.412119
12822;Corinth;NY;43.248892;-73.85172;-5;1;43.248892,-73.85172
14558;South Lima;NY;42.855409;-77.687643;-5;1;42.855409,-77.687643
10310;Staten Island;NY;40.63212;-74.11551;-5;1;40.63212,-74.11551
11026;Great Neck;NY;40.754757;-73.601772;-5;1;40.754757,-73.601772
12009;Altamont;NY;42.698692;-74.03148;-5;1;42.698692,-74.03148
12018;Averill Park;NY;42.62742;-73.53494;-5;1;42.62742,-73.53494
10933;Johnson;NY;41.365286;-74.510918;-5;1;41.365286,-74.510918
12154;Schaghticoke;NY;42.925765;-73.60664;-5;1;42.925765,-73.60664
12792;Yulan;NY;41.522825;-74.93164;-5;1;41.522825,-74.93164
12992;West Chazy;NY;44.819829;-73.51156;-5;1;44.819829,-73.51156
13613;Brasher Falls;NY;44.864624;-74.75386;-5;1;44.864624,-74.75386
13669;Ogdensburg;NY;44.683636;-75.49024;-5;1;44.683636,-75.49024
14585;West Bloomfield;NY;42.901162;-77.54848;-5;1;42.901162,-77.54848
14615;Rochester;NY;43.204695;-77.65194;-5;1;43.204695,-77.65194
11571;Rockville Centre;NY;40.754757;-73.601772;-5;1;40.754757,-73.601772
12496;Windham;NY;42.326918;-74.24657;-5;1;42.326918,-74.24657
13145;Sandy Creek;NY;43.653475;-76.13214;-5;1;43.653475,-76.13214
10537;Lake Peekskill;NY;41.337335;-73.88689;-5;1;41.337335,-73.88689
12851;Minerva;NY;43.841369;-74.03747;-5;1;43.841369,-74.03747
12860;Pottersville;NY;43.719612;-73.81116;-5;1;43.719612,-73.81116
13116;Minoa;NY;43.077067;-76.00695;-5;1;43.077067,-76.00695
13140;Port Byron;NY;43.049797;-76.66055;-5;1;43.049797,-76.66055
14174;Youngstown;NY;43.247054;-79.02562;-5;1;43.247054,-79.02562
10168;New York;NY;40.751933;-73.976794;-5;1;40.751933,-73.976794
11219;Brooklyn;NY;40.632449;-73.99629;-5;1;40.632449,-73.99629
14420;Brockport;NY;43.214261;-77.93937;-5;1;43.214261,-77.93937
11530;Garden City;NY;40.725257;-73.64056;-5;1;40.725257,-73.64056
11779;Ronkonkoma;NY;40.818826;-73.1187;-5;1;40.818826,-73.1187
12750;Kenoza Lake;NY;41.729581;-74.961146;-5;1;41.729581,-74.961146
13763;Endicott;NY;42.206745;-75.74488;-5;1;42.206745,-75.74488
12179;Troy;NY;42.71144;-73.525561;-5;1;42.71144,-73.525561
14058;Elba;NY;43.091886;-78.15151;-5;1;43.091886,-78.15151
12484;Stone Ridge;NY;41.850294;-74.16619;-5;1;41.850294,-74.16619
12760;Long Eddy;NY;41.901849;-75.10493;-5;1;41.901849,-75.10493
10048;New York;NY;40.712086;-74.01227;-5;1;40.712086,-74.01227
13326;Cooperstown;NY;42.703091;-74.91413;-5;1;42.703091,-74.91413
11780;Saint James;NY;40.884394;-73.15868;-5;1;40.884394,-73.15868
10633;White Plains;NY;41.119008;-73.732996;-5;1;41.119008,-73.732996
11572;Oceanside;NY;40.636286;-73.6374;-5;1;40.636286,-73.6374
12441;Highmount;NY;41.878801;-74.345684;-5;1;41.878801,-74.345684
13612;Black River;NY;44.003136;-75.77839;-5;1;44.003136,-75.77839
14537;Port Gibson;NY;43.033002;-77.157465;-5;1;43.033002,-77.157465
14609;Rochester;NY;43.175113;-77.56272;-5;1;43.175113,-77.56272
12031;Carlisle;NY;42.770985;-74.44694;-5;1;42.770985,-74.44694
12823;Cossayuna;NY;43.178983;-73.40767;-5;1;43.178983,-73.40767
13745;Chenango Bridge;NY;42.173775;-75.872839;-5;1;42.173775,-75.872839
14038;Crittenden;NY;42.947259;-78.474444;-5;1;42.947259,-78.474444
14555;Sodus Point;NY;43.269332;-76.9876;-5;1;43.269332,-76.9876
11254;Brooklyn;NY;40.645099;-73.945032;-5;1;40.645099,-73.945032
12033;Castleton On Hudson;NY;42.534631;-73.71327;-5;1;42.534631,-73.71327
12766;North Branch;NY;41.815316;-74.97995;-5;1;41.815316,-74.97995
11499;Jamaica;NY;40.651378;-73.870779;-5;1;40.651378,-73.870779
11963;Sag Harbor;NY;40.99628;-72.31074;-5;1;40.99628,-72.31074
11433;Jamaica;NY;40.696538;-73.78734;-5;1;40.696538,-73.78734
12111;Latham;NY;42.614852;-73.970812;-5;1;42.614852,-73.970812
12919;Champlain;NY;44.965887;-73.43636;-5;1;44.965887,-73.43636
10803;Pelham;NY;40.902221;-73.80717;-5;1;40.902221,-73.80717
13744;Castle Creek;NY;42.250715;-75.91871;-5;1;42.250715,-75.91871
12028;Buskirk;NY;42.932315;-73.44521;-5;1;42.932315,-73.44521
12523;Elizaville;NY;42.080964;-73.77856;-5;1;42.080964,-73.77856
14719;Cattaraugus;NY;42.329183;-78.87436;-5;1;42.329183,-78.87436
10121;New York;NY;40.74964;-73.991889;-5;1;40.74964,-73.991889
12241;Albany;NY;42.614852;-73.970812;-5;1;42.614852,-73.970812
12790;Wurtsboro;NY;41.592087;-74.50677;-5;1;41.592087,-74.50677
10110;New York;NY;40.753987;-73.980811;-5;1;40.753987,-73.980811
10912;Bellvale;NY;41.387822;-74.354699;-5;1;41.387822,-74.354699
12524;Fishkill;NY;41.537232;-73.8972;-5;1;41.537232,-73.8972
13698;Ellisburg;NY;43.775216;-76.202658;-5;1;43.775216,-76.202658
13776;Gilbertsville;NY;42.457398;-75.33434;-5;1;42.457398,-75.33434
14233;Buffalo;NY;42.768413;-78.887094;-5;1;42.768413,-78.887094
12512;Chelsea;NY;41.552793;-73.968183;-5;1;41.552793,-73.968183
10505;Baldwin Place;NY;41.33431;-73.749244;-5;1;41.33431,-73.749244
10533;Irvington;NY;41.039005;-73.8635;-5;1;41.039005,-73.8635
11020;Great Neck;NY;40.771082;-73.71819;-5;1;40.771082,-73.71819
12726;Cochecton;NY;41.694153;-74.97593;-5;1;41.694153,-74.97593
10177;New York;NY;40.755345;-73.97609;-5;1;40.755345,-73.97609
10558;Mount Vernon;NY;41.119008;-73.732996;-5;1;41.119008,-73.732996
14825;Chemung;NY;42.043018000000004;-76.62459;-5;1;42.043018,-76.62459
14144;Stella Niagara;NY;43.199494;-79.042477;-5;1;43.199494,-79.042477
13449;Rome;NY;43.239274;-75.47796;-5;1;43.239274,-75.47796
14269;Buffalo;NY;42.768413;-78.887094;-5;1;42.768413,-78.887094
14653;Rochester;NY;43.286024;-77.684264;-5;1;43.286024,-77.684264
11819;Hicksville;NY;40.754757;-73.601772;-5;1;40.754757,-73.601772
14736;Findley Lake;NY;42.130247;-79.74933;-5;1;42.130247,-79.74933
12036;Charlotteville;NY;42.546034;-74.67315;-5;1;42.546034,-74.67315
12935;Ellenburg Depot;NY;44.83218;-73.80001;-5;1;44.83218,-73.80001
12763;Mountain Dale;NY;41.690795;-74.52273;-5;1;41.690795,-74.52273
12855;North Hudson;NY;43.996303;-73.72147;-5;1;43.996303,-73.72147
13352;Hinckley;NY;43.328187;-75.117319;-5;1;43.328187,-75.117319
10007;New York;NY;40.714754;-74.00721;-5;1;40.714754,-74.00721
12530;Hollowville;NY;42.210991;-73.687001;-5;1;42.210991,-73.687001
13081;King Ferry;NY;42.667102;-76.62939;-5;1;42.667102,-76.62939
12436;Haines Falls;NY;42.19551;-74.102319;-5;1;42.19551,-74.102319
11364;Oakland Gardens;NY;40.746718;-73.75994;-5;1;40.746718,-73.75994
14894;Wellsburg;NY;42.01359;-76.75307;-5;1;42.01359,-76.75307
11570;Rockville Centre;NY;40.663935;-73.63792;-5;1;40.663935,-73.63792
12108;Lake Pleasant;NY;43.525388;-74.40875;-5;1;43.525388,-74.40875
13687;South Colton;NY;44.501065;-74.86633;-5;1;44.501065,-74.86633
14475;Ionia;NY;42.933105;-77.49687;-5;1;42.933105,-77.49687
11957;Orient;NY;41.151826;-72.27511;-5;1;41.151826,-72.27511
12053;Delanson;NY;42.749499;-74.18601;-5;1;42.749499,-74.18601
12477;Saugerties;NY;42.085634;-73.97685;-5;1;42.085634,-73.97685
13110;Marietta;NY;42.891595;-76.28318;-5;1;42.891595,-76.28318
14804;Almond;NY;42.321173;-77.82312;-5;1;42.321173,-77.82312
10276;New York;NY;40.780751;-73.977182;-5;1;40.780751,-73.977182
13647;Hannawa Falls;NY;44.608735;-74.973218;-5;1;44.608735,-74.973218
14052;East Aurora;NY;42.770859;-78.59804;-5;1;42.770859,-78.59804
10037;New York;NY;40.813385;-73.93616;-5;1;40.813385,-73.93616
11947;Jamesport;NY;40.943323;-72.57996;-5;1;40.943323,-72.57996
12469;Preston Hollow;NY;42.442592;-74.24159;-5;1;42.442592,-74.24159
12487;Ulster Park;NY;41.855761;-73.99207;-5;1;41.855761,-73.99207
13074;Hannibal;NY;43.317683;-76.56767;-5;1;43.317683,-76.56767
11371;Flushing;NY;40.772072;-73.87509;-5;1;40.772072,-73.87509
12547;Milton;NY;41.656805;-73.96831;-5;1;41.656805,-73.96831
12872;Severance;NY;44.145678;-73.815204;-5;1;44.145678,-73.815204
14801;Addison;NY;42.104389;-77.28857;-5;1;42.104389,-77.28857
12858;Paradox;NY;43.888754;-73.65812;-5;1;43.888754,-73.65812
12942;Keene;NY;44.25462;-73.78934;-5;1;44.25462,-73.78934
12563;Patterson;NY;41.483689;-73.57293;-5;1;41.483689,-73.57293
12828;Fort Edward;NY;43.253125;-73.58549;-5;1;43.253125,-73.58549
13301;Alder Creek;NY;43.419132;-75.21942;-5;1;43.419132,-75.21942
14068;Getzville;NY;43.02534;-78.76241;-5;1;43.02534,-78.76241
10026;New York;NY;40.802853;-73.95471;-5;1;40.802853,-73.95471
10250;New York;NY;40.709387;-74.016529;-5;1;40.709387,-74.016529
10956;New City;NY;41.145495;-73.9949;-5;1;41.145495,-73.9949
12996;Willsboro;NY;44.373007;-73.40668;-5;1;44.373007,-73.40668
13363;Lee Center;NY;43.311975;-75.50677;-5;1;43.311975,-75.50677
11566;Merrick;NY;40.666575;-73.55475;-5;1;40.666575,-73.55475
12911;Keeseville;NY;44.530527;-73.46734;-5;1;44.530527,-73.46734
10977;Spring Valley;NY;41.116795;-74.04504;-5;1;41.116795,-74.04504
12926;Constable;NY;44.953782;-74.32809;-5;1;44.953782,-74.32809
13060;Elbridge;NY;43.025843;-76.42589;-5;1;43.025843,-76.42589
13778;Greene;NY;42.336771;-75.75964;-5;1;42.336771,-75.75964
14723;Cherry Creek;NY;42.316386;-79.1364;-5;1;42.316386,-79.1364
10551;Mount Vernon;NY;41.119008;-73.732996;-5;1;41.119008,-73.732996
12491;West Hurley;NY;41.998199;-74.10967;-5;1;41.998199,-74.10967
14450;Fairport;NY;43.091714;-77.43483;-5;1;43.091714,-77.43483
11692;Arverne;NY;40.592939;-73.79568;-5;1;40.592939,-73.79568
12507;Barrytown;NY;42.005984;-73.92132;-5;1;42.005984,-73.92132
13045;Cortland;NY;42.591109;-76.19217;-5;1;42.591109,-76.19217
12205;Albany;NY;42.713328;-73.8179;-5;1;42.713328,-73.8179
12504;Annandale On Hudson;NY;42.035434;-73.909234;-5;1;42.035434,-73.909234
12413;Cairo;NY;42.307982;-74.008;-5;1;42.307982,-74.008
14103;Medina;NY;43.217155;-78.38746;-5;1;43.217155,-78.38746
14727;Cuba;NY;42.213216;-78.28649;-5;1;42.213216,-78.28649
10557;Mount Vernon;NY;41.119008;-73.732996;-5;1;41.119008,-73.732996
10130;New York;NY;40.780751;-73.977182;-5;1;40.780751,-73.977182
11790;Stony Brook;NY;40.906174;-73.12748;-5;1;40.906174,-73.12748
10060;New York;NY;40.780751;-73.977182;-5;1;40.780751,-73.977182
11385;Ridgewood;NY;40.703069;-73.89285;-5;1;40.703069,-73.89285
11772;Patchogue;NY;40.770898;-73.00213;-5;1;40.770898,-73.00213
12517;Copake Falls;NY;42.144585;-73.51463;-5;1;42.144585,-73.51463
13436;Raquette Lake;NY;43.807314;-74.66771;-5;1;43.807314,-74.66771
11959;Quogue;NY;40.825411;-72.60506;-5;1;40.825411,-72.60506
12308;Schenectady;NY;42.820909;-73.92002;-5;1;42.820909,-73.92002
11782;Sayville;NY;40.739869;-73.07198;-5;1;40.739869,-73.07198
11484;Jamaica;NY;40.651378;-73.870779;-5;1;40.651378,-73.870779
11531;Garden City;NY;40.754757;-73.601772;-5;1;40.754757,-73.601772
12430;Fleischmanns;NY;42.183262;-74.52154;-5;1;42.183262,-74.52154
14032;Clarence Center;NY;43.019908;-78.63497;-5;1;43.019908,-78.63497
10701;Yonkers;NY;40.943525;-73.88176;-5;1;40.943525,-73.88176
11797;Woodbury;NY;40.813801;-73.46912;-5;1;40.813801,-73.46912
12433;Glenford;NY;42.000093;-74.15946;-5;1;42.000093,-74.15946
12752;Lake Huntington;NY;41.677243;-74.99109;-5;1;41.677243,-74.99109
12136;Old Chatham;NY;42.437594;-73.55599;-5;1;42.437594,-73.55599
12775;Rock Hill;NY;41.614218;-74.58836;-5;1;41.614218,-74.58836
11576;Roslyn;NY;40.793839;-73.65156;-5;1;40.793839,-73.65156
12831;Gansevoort;NY;43.174566;-73.68848;-5;1;43.174566,-73.68848
13118;Moravia;NY;42.755698;-76.41226;-5;1;42.755698,-76.41226
14082;Java Center;NY;42.661838;-78.38309;-5;1;42.661838,-78.38309
11745;Smithtown;NY;40.922326;-72.637078;-5;1;40.922326,-72.637078
12816;Cambridge;NY;43.039226;-73.38557;-5;1;43.039226,-73.38557
10102;New York;NY;40.780751;-73.977182;-5;1;40.780751,-73.977182
13093;Lycoming;NY;43.431311;-76.200448;-5;1;43.431311,-76.200448
11022;Great Neck;NY;40.754757;-73.601772;-5;1;40.754757,-73.601772
13164;Warners;NY;43.088699;-76.31946;-5;1;43.088699,-76.31946
13343;Glenfield;NY;43.743932;-75.34971;-5;1;43.743932,-75.34971
12886;Wevertown;NY;43.638462;-73.91693;-5;1;43.638462,-73.91693
12997;Wilmington;NY;44.145678;-73.815204;-5;1;44.145678,-73.815204
14703;Jamestown;NY;42.342529;-79.41091;-5;1;42.342529,-79.41091
11975;Wainscott;NY;40.947419;-72.24505;-5;1;40.947419,-72.24505
13033;Cato;NY;43.182054;-76.57176;-5;1;43.182054,-76.57176
14504;Manchester;NY;42.970621;-77.2298;-5;1;42.970621,-77.2298
10475;Bronx;NY;40.878522;-73.82541;-5;1;40.878522,-73.82541
14560;Springwater;NY;42.674773;-77.58341;-5;1;42.674773,-77.58341
12140;Poestenkill;NY;42.693228;-73.56922;-5;1;42.693228,-73.56922
12223;Albany;NY;42.614852;-73.970812;-5;1;42.614852,-73.970812
12288;Albany;NY;42.614852;-73.970812;-5;1;42.614852,-73.970812
10176;New York;NY;40.75557;-73.978877;-5;1;40.75557,-73.978877
11255;Brooklyn;NY;40.645099;-73.945032;-5;1;40.645099,-73.945032
12202;Albany;NY;42.640129;-73.76061;-5;1;42.640129,-73.76061
12236;Albany;NY;42.614852;-73.970812;-5;1;42.614852,-73.970812
12017;Austerlitz;NY;42.323565;-73.45257;-5;1;42.323565,-73.45257
12134;Northville;NY;43.21892;-74.14822;-5;1;43.21892,-74.14822
14094;Lockport;NY;43.160857;-78.68756;-5;1;43.160857,-78.68756
14130;Pike;NY;42.543108;-78.153849;-5;1;42.543108,-78.153849
11202;Brooklyn;NY;40.645099;-73.945032;-5;1;40.645099,-73.945032
13160;Union Springs;NY;42.832007;-76.66641;-5;1;42.832007,-76.66641
14172;Wilson;NY;43.307288;-78.83368;-5;1;43.307288,-78.83368
10118;New York;NY;40.748998;-73.986467;-5;1;40.748998,-73.986467
14895;Wellsville;NY;42.094855;-77.94686;-5;1;42.094855,-77.94686
10116;New York;NY;40.780751;-73.977182;-5;1;40.780751,-73.977182
10516;Cold Spring;NY;41.440695;-73.9314;-5;1;41.440695,-73.9314
11375;Forest Hills;NY;40.720535;-73.84582;-5;1;40.720535,-73.84582
12443;Hurley;NY;41.92674;-74.06797;-5;1;41.92674,-74.06797
12937;Fort Covington;NY;44.972087;-74.48703;-5;1;44.972087,-74.48703
11237;Brooklyn;NY;40.703355;-73.91993;-5;1;40.703355,-73.91993
11411;Cambria Heights;NY;40.693538;-73.73574;-5;1;40.693538,-73.73574
12887;Whitehall;NY;43.547822;-73.38318;-5;1;43.547822,-73.38318
11977;Westhampton;NY;40.81819;-72.67835;-5;1;40.81819,-72.67835
12721;Bloomingburg;NY;41.564426;-74.4265;-5;1;41.564426,-74.4265
14422;Byron;NY;43.079217;-78.06371;-5;1;43.079217,-78.06371
14112;North Evans;NY;42.691742;-78.992658;-5;1;42.691742,-78.992658
13839;Sidney Center;NY;42.236762;-75.25901;-5;1;42.236762,-75.25901
14037;Cowlesville;NY;42.814667;-78.46076;-5;1;42.814667,-78.46076
10453;Bronx;NY;40.853017;-73.91214;-5;1;40.853017,-73.91214
11025;Great Neck;NY;40.754757;-73.601772;-5;1;40.754757,-73.601772
12186;Voorheesville;NY;42.638481;-73.95946;-5;1;42.638481,-73.95946
12193;Westerlo;NY;42.515818;-74.04978;-5;1;42.515818,-74.04978
12742;Harris;NY;41.720235;-74.72901;-5;1;41.720235,-74.72901
10081;New York;NY;40.780751;-73.977182;-5;1;40.780751,-73.977182
10163;New York;NY;40.780751;-73.977182;-5;1;40.780751,-73.977182
12059;East Berne;NY;42.621933;-74.05574;-5;1;42.621933,-74.05574
13488;Westford;NY;42.680906;-74.76529;-5;1;42.680906,-74.76529
14517;Nunda;NY;42.589984;-77.9075;-5;1;42.589984,-77.9075
10594;Thornwood;NY;41.120025;-73.77687;-5;1;41.120025,-73.77687
13042;Cleveland;NY;43.252083999999996;-75.84853;-5;1;43.252084,-75.84853
12964;New Russia;NY;44.129094;-73.64792;-5;1;44.129094,-73.64792
12976;Rainbow Lake;NY;44.552725;-74.317958;-5;1;44.552725,-74.317958
13040;Cincinnatus;NY;42.560795;-75.93241;-5;1;42.560795,-75.93241
10109;New York;NY;40.780751;-73.977182;-5;1;40.780751,-73.977182
11778;Rocky Point;NY;40.954093;-72.92884;-5;1;40.954093,-72.92884
13616;Calcium;NY;44.030831;-75.85521;-5;1;44.030831,-75.85521
14169;Wales Center;NY;42.767333;-78.585646;-5;1;42.767333,-78.585646
14201;Buffalo;NY;42.896406999999996;-78.88515;-5;1;42.896407,-78.88515
14844;Horseheads;NY;42.160717;-76.878456;-5;1;42.160717,-76.878456
14847;Interlaken;NY;42.614518;-76.72405;-5;1;42.614518,-76.72405
14559;Spencerport;NY;43.189862;-77.81809;-5;1;43.189862,-77.81809
10080;New York;NY;40.780751;-73.977182;-5;1;40.780751,-73.977182
11547;Glenwood Landing;NY;40.828143;-73.64401;-5;1;40.828143,-73.64401
13054;Durhamville;NY;43.165514;-75.68091;-5;1;43.165514,-75.68091
13415;New Lisbon;NY;42.590419;-75.195695;-5;1;42.590419,-75.195695
14110;North Boston;NY;42.768413;-78.887094;-5;1;42.768413,-78.887094
10029;New York;NY;40.791586;-73.94575;-5;1;40.791586,-73.94575
12131;North Blenheim;NY;42.482123;-74.45715;-5;1;42.482123,-74.45715
12531;Holmes;NY;41.519085;-73.67241;-5;1;41.519085,-73.67241
11717;Brentwood;NY;40.783954;-73.24517;-5;1;40.783954,-73.24517
10044;New York;NY;40.762174;-73.94917;-5;1;40.762174,-73.94917
11120;Long Island City;NY;40.651378;-73.870779;-5;1;40.651378,-73.870779
11415;Kew Gardens;NY;40.706903;-73.82973;-5;1;40.706903,-73.82973
13155;South Otselic;NY;42.662648;-75.76265;-5;1;42.662648,-75.76265
10465;Bronx;NY;40.825727;-73.81752;-5;1;40.825727,-73.81752
14303;Niagara Falls;NY;43.086355;-79.03736;-5;1;43.086355,-79.03736
14702;Jamestown;NY;42.081657;-79.294921;-5;1;42.081657,-79.294921
14715;Bolivar;NY;42.076186;-78.14489;-5;1;42.076186,-78.14489
13484;West Eaton;NY;42.854631;-75.660462;-5;1;42.854631,-75.660462
14220;Buffalo;NY;42.845758000000004;-78.8187;-5;1;42.845758,-78.8187
10010;New York;NY;40.739022;-73.98205;-5;1;40.739022,-73.98205
11760;Hauppauge;NY;40.810246;-73.191789;-5;1;40.810246,-73.191789
14591;Wyoming;NY;42.829405;-78.08887;-5;1;42.829405,-78.08887
10119;New York;NY;40.750824;-73.99289;-5;1;40.750824,-73.99289
11549;Hempstead;NY;40.754757;-73.601772;-5;1;40.754757,-73.601772
11420;South Ozone Park;NY;40.673138;-73.81443;-5;1;40.673138,-73.81443
13396;Madison;NY;42.839697;-75.544322;-5;1;42.839697,-75.544322
12046;Coeymans Hollow;NY;42.475609;-73.92656;-5;1;42.475609,-73.92656
12158;Selkirk;NY;42.539822;-73.81545;-5;1;42.539822,-73.81545
14756;Maple Springs;NY;42.19815;-79.417353;-5;1;42.19815,-79.417353
13367;Lowville;NY;43.794492;-75.46905;-5;1;43.794492,-75.46905
13322;Clayville;NY;42.969624;-75.22603;-5;1;42.969624,-75.22603
14810;Bath;NY;42.351281;-77.3361;-5;1;42.351281,-77.3361
13659;Lorraine;NY;43.743998;-75.89354;-5;1;43.743998,-75.89354
11002;Floral Park;NY;40.754757;-73.601772;-5;1;40.754757,-73.601772
14767;Panama;NY;42.043339;-79.51361;-5;1;42.043339,-79.51361
10455;Bronx;NY;40.815559;-73.90771;-5;1;40.815559,-73.90771
10916;Campbell Hall;NY;41.451074;-74.24346;-5;1;41.451074,-74.24346
13036;Central Square;NY;43.299689;-76.15144;-5;1;43.299689,-76.15144
13103;Mallory;NY;43.339851;-76.096357;-5;1;43.339851,-76.096357
14098;Lyndonville;NY;43.338755;-78.3931;-5;1;43.338755,-78.3931
14664;Rochester;NY;43.286024;-77.684264;-5;1;43.286024,-77.684264
11718;Brightwaters;NY;40.720746;-73.26614000000001;-5;1;40.720746,-73.26614
12550;Newburgh;NY;41.521593;-74.04072;-5;1;41.521593,-74.04072
14625;Rochester;NY;43.143663;-77.51114;-5;1;43.143663,-77.51114
10588;Shrub Oak;NY;41.330178;-73.82973;-5;1;41.330178,-73.82973
11738;Farmingville;NY;40.83469;-73.0386;-5;1;40.83469,-73.0386
11949;Manorville;NY;40.855861;-72.79736;-5;1;40.855861,-72.79736
12856;North River;NY;43.722082;-74.10546;-5;1;43.722082,-74.10546
12510;Billings;NY;41.759905;-73.743714;-5;1;41.759905,-73.743714
13410;Nelliston;NY;42.937863;-74.611711;-5;1;42.937863,-74.611711
10988;Unionville;NY;41.314931;-74.550346;-5;1;41.314931,-74.550346
12533;Hopewell Junction;NY;41.573253;-73.79347;-5;1;41.573253,-73.79347
13803;Marathon;NY;42.453663;-76.06983;-5;1;42.453663,-76.06983
12176;Surprise;NY;42.393192;-73.96763;-5;1;42.393192,-73.96763
14223;Buffalo;NY;42.972207;-78.84234000000001;-5;1;42.972207,-78.84234
13657;Limerick;NY;44.035703;-76.090424;-5;1;44.035703,-76.090424
12952;Lyon Mountain;NY;44.715159;-73.91824;-5;1;44.715159,-73.91824
13453;Williamstown;NY;43.436919;-75.881404;-5;1;43.436919,-75.881404
13673;Philadelphia;NY;44.160785;-75.71159;-5;1;44.160785,-75.71159
11941;Eastport;NY;40.824658;-72.72356;-5;1;40.824658,-72.72356
13863;Willet;NY;42.437964;-75.89884;-5;1;42.437964,-75.89884
11755;Lake Grove;NY;40.855402;-73.11839;-5;1;40.855402,-73.11839
12304;Schenectady;NY;42.779026;-73.90507;-5;1;42.779026,-73.90507
12481;Shokan;NY;41.974857;-74.20686;-5;1;41.974857,-74.20686
11248;Brooklyn;NY;40.645099;-73.945032;-5;1;40.645099,-73.945032
13504;Utica;NY;43.136033;-75.432486;-5;1;43.136033,-75.432486
12506;Bangall;NY;41.759905;-73.743714;-5;1;41.759905,-73.743714
12525;Gardiner;NY;41.691524;-74.18764;-5;1;41.691524,-74.18764
12107;Knox;NY;42.660046;-74.116812;-5;1;42.660046,-74.116812
12115;Malden Bridge;NY;42.469991;-73.58587;-5;1;42.469991,-73.58587
12231;Albany;NY;42.614852;-73.970812;-5;1;42.614852,-73.970812
12516;Copake;NY;42.112895;-73.56201;-5;1;42.112895,-73.56201
14035;Collins Center;NY;42.49064;-78.849861;-5;1;42.49064,-78.849861
13101;McGraw;NY;42.593363;-76.07789;-5;1;42.593363,-76.07789
13439;Richfield Springs;NY;42.852372;-74.99121;-5;1;42.852372,-74.99121
14135;Sheridan;NY;42.488983;-79.238997;-5;1;42.488983,-79.238997
14897;Whitesville;NY;42.034218;-77.79269;-5;1;42.034218,-77.79269
12016;Auriesville;NY;42.910206;-74.423606;-5;1;42.910206,-74.423606
13069;Fulton;NY;43.32347;-76.40029;-5;1;43.32347,-76.40029
10122;New York;NY;40.751757;-73.992171;-5;1;40.751757,-73.992171
13942;Whitestown;NY;43.114669;-75.305811;-5;1;43.114669,-75.305811
10579;Putnam Valley;NY;41.390356;-73.8377;-5;1;41.390356,-73.8377
14065;Freedom;NY;42.483508;-78.30011;-5;1;42.483508,-78.30011
14616;Rochester;NY;43.232312;-77.64905;-5;1;43.232312,-77.64905
10114;New York;NY;40.780751;-73.977182;-5;1;40.780751,-73.977182
11551;Hempstead;NY;40.754757;-73.601772;-5;1;40.754757,-73.601772
10131;New York;NY;40.780751;-73.977182;-5;1;40.780751,-73.977182
10519;Croton Falls;NY;41.34598;-73.66199;-5;1;41.34598,-73.66199
11793;Wantagh;NY;40.676649;-73.51122;-5;1;40.676649,-73.51122
14534;Pittsford;NY;43.071131;-77.51181;-5;1;43.071131,-77.51181
10953;Mountainville;NY;41.409284;-74.083045;-5;1;41.409284,-74.083045
11102;Astoria;NY;40.771286;-73.92462;-5;1;40.771286,-73.92462
12155;Schenevus;NY;42.587708;-74.83536;-5;1;42.587708,-74.83536
13261;Syracuse;NY;43.02143;-76.197701;-5;1;43.02143,-76.197701
13260;Syracuse;NY;43.02143;-76.197701;-5;1;43.02143,-76.197701
14449;East Williamson;NY;43.235369;-77.137642;-5;1;43.235369,-77.137642
12582;Stormville;NY;41.549525;-73.72745;-5;1;41.549525,-73.72745
13457;Schuyler Lake;NY;42.775805;-75.048502;-5;1;42.775805,-75.048502
13814;North Norwich;NY;42.603574;-75.528221;-5;1;42.603574,-75.528221
11024;Great Neck;NY;40.812887;-73.74094;-5;1;40.812887,-73.74094
14627;Rochester;NY;43.127513;-77.627674;-5;1;43.127513,-77.627674
10011;New York;NY;40.741012;-74.00012;-5;1;40.741012,-74.00012
13252;Syracuse;NY;43.050966;-76.156696;-5;1;43.050966,-76.156696
14561;Stanley;NY;42.815171;-77.1321;-5;1;42.815171,-77.1321
14842;Himrod;NY;42.595985;-76.94713;-5;1;42.595985,-76.94713
14841;Hector;NY;42.521501;-76.86246;-5;1;42.521501,-76.86246
11955;Moriches;NY;40.805789;-72.82092;-5;1;40.805789,-72.82092
12212;Albany;NY;42.716774;-73.810373;-5;1;42.716774,-73.810373
12468;Prattsville;NY;42.297725;-74.40063;-5;1;42.297725,-74.40063
12503;Ancramdale;NY;42.045941;-73.57792;-5;1;42.045941,-73.57792
13643;Great Bend;NY;44.014698;-75.728357;-5;1;44.014698,-75.728357
12410;Big Indian;NY;42.114646;-74.4557;-5;1;42.114646,-74.4557
11705;Bayport;NY;40.74485;-73.055;-5;1;40.74485,-73.055
11750;Huntington Station;NY;40.922326;-72.637078;-5;1;40.922326,-72.637078
12062;East Nassau;NY;42.525531;-73.50207;-5;1;42.525531,-73.50207
11451;Jamaica;NY;40.651378;-73.870779;-5;1;40.651378,-73.870779
12910;Altona;NY;44.879986;-73.65694;-5;1;44.879986,-73.65694
13206;Syracuse;NY;43.069866;-76.10724;-5;1;43.069866,-76.10724
13752;De Lancey;NY;42.187835;-74.89418;-5;1;42.187835,-74.89418
11710;Bellmore;NY;40.673438;-73.53382;-5;1;40.673438,-73.53382
13766;Maine;NY;42.155346;-76.071767;-5;1;42.155346,-76.071767
14589;Williamson;NY;43.24816;-77.18498;-5;1;43.24816,-77.18498
10595;Valhalla;NY;41.083848;-73.77785;-5;1;41.083848,-73.77785
12451;Leeds;NY;42.281117;-73.94006;-5;1;42.281117,-73.94006
12901;Plattsburgh;NY;44.693271;-73.46617;-5;1;44.693271,-73.46617
13304;Barneveld;NY;43.242724;-75.1659;-5;1;43.242724,-75.1659
12541;Livingston;NY;42.142068;-73.757399;-5;1;42.142068,-73.757399
12544;Mellenville;NY;42.259623;-73.667962;-5;1;42.259623,-73.667962
13618;Cape Vincent;NY;44.114183;-76.29288;-5;1;44.114183,-76.29288
14886;Trumansburg;NY;42.51432;-76.6689;-5;1;42.51432,-76.6689
12093;Jefferson;NY;42.496939;-74.62813;-5;1;42.496939,-74.62813
12424;East Jewett;NY;42.240343;-74.15932;-5;1;42.240343,-74.15932
10468;Bronx;NY;40.867107;-73.89916;-5;1;40.867107,-73.89916
10801;New Rochelle;NY;40.915845;-73.78643;-5;1;40.915845,-73.78643
13837;Shinhopple;NY;42.183045;-74.925617;-5;1;42.183045,-74.925617
12419;Cottekill;NY;41.852449;-74.10605;-5;1;41.852449,-74.10605
12564;Pawling;NY;41.570328;-73.59825;-5;1;41.570328,-73.59825
13677;Pyrites;NY;44.673438;-75.082041;-5;1;44.673438,-75.082041
10540;Lincolndale;NY;41.333398;-73.724257;-5;1;41.333398,-73.724257
10203;New York;NY;40.780751;-73.977182;-5;1;40.780751,-73.977182
12838;Hartford;NY;43.345875;-73.40651;-5;1;43.345875,-73.40651
14610;Rochester;NY;43.142259;-77.54587;-5;1;43.142259,-77.54587
11378;Maspeth;NY;40.724096;-73.90271;-5;1;40.724096,-73.90271
13473;Turin;NY;43.654278;-75.43828;-5;1;43.654278,-75.43828
13811;Newark Valley;NY;42.222777;-76.17822;-5;1;42.222777,-76.17822
12260;Albany;NY;42.614852;-73.970812;-5;1;42.614852,-73.970812
12475;Ruby;NY;42.017632;-74.007868;-5;1;42.017632,-74.007868
13472;Thendara;NY;43.460951;-74.957099;-5;1;43.460951,-74.957099
12941;Jay;NY;44.3919;-73.73028;-5;1;44.3919,-73.73028
13401;McConnellsville;NY;43.267243;-75.688223;-5;1;43.267243,-75.688223
13847;Trout Creek;NY;42.183045;-74.925617;-5;1;42.183045,-74.925617
14051;East Amherst;NY;43.025217;-78.70394;-5;1;43.025217,-78.70394
14708;Alma;NY;42.016108;-78.05768;-5;1;42.016108,-78.05768
11713;Bellport;NY;40.771447;-72.94663;-5;1;40.771447,-72.94663
12501;Amenia;NY;41.852959;-73.55727;-5;1;41.852959,-73.55727
13340;Frankfort;NY;43.046471;-75.10019;-5;1;43.046471,-75.10019
13797;Lisle;NY;42.335102;-76.02313;-5;1;42.335102,-76.02313
11935;Cutchogue;NY;41.012868;-72.4723;-5;1;41.012868,-72.4723
10459;Bronx;NY;40.825432;-73.89327;-5;1;40.825432,-73.89327
12444;Jewett;NY;42.260634;-74.27527;-5;1;42.260634,-74.27527
12749;Kauneonga Lake;NY;41.6896;-74.8272;-5;1;41.6896,-74.8272
11771;Oyster Bay;NY;40.868882;-73.52292;-5;1;40.868882,-73.52292
12345;Schenectady;NY;42.833261;-74.058015;-5;1;42.833261,-74.058015
10018;New York;NY;40.755101;-73.99337;-5;1;40.755101,-73.99337
12549;Montgomery;NY;41.520396;-74.24712;-5;1;41.520396,-74.24712
14136;Silver Creek;NY;42.535276;-79.16539;-5;1;42.535276,-79.16539
11228;Brooklyn;NY;40.617563;-74.01168;-5;1;40.617563,-74.01168
11736;Farmingdale;NY;40.754757;-73.601772;-5;1;40.754757,-73.601772
14718;Cassadaga;NY;42.343265;-79.30101;-5;1;42.343265,-79.30101
13315;Burlington Flats;NY;42.728271;-75.14144;-5;1;42.728271,-75.14144
10457;Bronx;NY;40.846745;-73.89861;-5;1;40.846745,-73.89861
14803;Alfred Station;NY;42.258793;-77.77793;-5;1;42.258793,-77.77793
12067;Feura Bush;NY;42.561226;-73.92528;-5;1;42.561226,-73.92528
13755;Downsville;NY;42.086268;-75.00691;-5;1;42.086268,-75.00691
10016;New York;NY;40.74618;-73.97759;-5;1;40.74618,-73.97759
13411;New Berlin;NY;42.626177;-75.31502;-5;1;42.626177,-75.31502
11747;Melville;NY;40.791593;-73.40543;-5;1;40.791593,-73.40543
12064;East Worcester;NY;42.615422;-74.6595;-5;1;42.615422,-74.6595
11740;Greenlawn;NY;40.862565;-73.36221;-5;1;40.862565,-73.36221
12529;Hillsdale;NY;42.204681;-73.54775;-5;1;42.204681,-73.54775
13361;Jordanville;NY;42.902922;-74.89149;-5;1;42.902922,-74.89149
11099;New Hyde Park;NY;40.754757;-73.601772;-5;1;40.754757,-73.601772
12590;Wappingers Falls;NY;41.59466;-73.89579;-5;1;41.59466,-73.89579
14620;Rochester;NY;43.132474;-77.60377;-5;1;43.132474,-77.60377
10566;Peekskill;NY;41.288258;-73.91928;-5;1;41.288258,-73.91928
10587;Shenorock;NY;41.328737;-73.742268;-5;1;41.328737,-73.742268
10975;Southfields;NY;41.246428;-74.17141;-5;1;41.246428,-74.17141
11795;West Islip;NY;40.713459;-73.3001;-5;1;40.713459,-73.3001
12934;Ellenburg Center;NY;44.865972;-73.89584;-5;1;44.865972,-73.89584
11545;Glen Head;NY;40.823957;-73.60415;-5;1;40.823957,-73.60415
12070;Fort Johnson;NY;42.970827;-74.24778;-5;1;42.970827,-74.24778
12833;Greenfield Center;NY;43.128878;-73.8555;-5;1;43.128878,-73.8555
13126;Oswego;NY;43.449201;-76.47992;-5;1;43.449201,-76.47992
14836;Dalton;NY;42.523195;-77.93008;-5;1;42.523195,-77.93008
10456;Bronx;NY;40.829676;-73.90856;-5;1;40.829676,-73.90856
13679;Redwood;NY;44.323952;-75.76895;-5;1;44.323952,-75.76895
14224;Buffalo;NY;42.836858;-78.75557;-5;1;42.836858,-78.75557
13903;Binghamton;NY;42.077258;-75.90226;-5;1;42.077258,-75.90226
13302;Altmar;NY;43.499843;-75.97716;-5;1;43.499843,-75.97716
10583;Scarsdale;NY;40.98845;-73.79716;-5;1;40.98845,-73.79716
11721;Centerport;NY;40.890598;-73.37536;-5;1;40.890598,-73.37536
14760;Olean;NY;42.076574;-78.42744;-5;1;42.076574,-78.42744
14889;Van Etten;NY;42.212809;-76.58618;-5;1;42.212809,-76.58618
11708;Amityville;NY;40.922326;-72.637078;-5;1;40.922326,-72.637078
13209;Syracuse;NY;43.081324;-76.23488;-5;1;43.081324,-76.23488
10159;New York;NY;40.780751;-73.977182;-5;1;40.780751,-73.977182
12786;White Lake;NY;41.649008;-74.85751;-5;1;41.649008,-74.85751
14010;Athol Springs;NY;42.768413;-78.887094;-5;1;42.768413,-78.887094
13476;Vernon;NY;43.079233;-75.5134;-5;1;43.079233,-75.5134
13746;Chenango Forks;NY;42.261923;-75.84463;-5;1;42.261923,-75.84463
10520;Croton On Hudson;NY;41.215541;-73.88543;-5;1;41.215541,-73.88543
10278;New York;NY;40.715721;-74.00395;-5;1;40.715721,-74.00395
12809;Argyle;NY;43.229054;-73.4674;-5;1;43.229054,-73.4674
12815;Brant Lake;NY;43.703484;-73.71123;-5;1;43.703484,-73.71123
11535;Garden City;NY;40.754757;-73.601772;-5;1;40.754757,-73.601772
11853;Jericho;NY;40.754757;-73.601772;-5;1;40.754757,-73.601772
14549;Silver Lake;NY;42.692874;-78.022364;-5;1;42.692874,-78.022364
11758;Massapequa;NY;40.68085;-73.46289;-5;1;40.68085,-73.46289
11798;Wyandanch;NY;40.752098;-73.36516;-5;1;40.752098,-73.36516
12194;West Fulton;NY;42.529042;-74.44937;-5;1;42.529042,-74.44937
12922;Childwold;NY;44.224185;-74.76539;-5;1;44.224185,-74.76539
13825;Otego;NY;42.417489;-75.18605;-5;1;42.417489,-75.18605
11053;Port Washington;NY;40.754757;-73.601772;-5;1;40.754757,-73.601772
14075;Hamburg;NY;42.734051;-78.8413;-5;1;42.734051,-78.8413
14852;Ithaca;NY;42.445074;-76.467233;-5;1;42.445074,-76.467233
11230;Brooklyn;NY;40.622994;-73.96427;-5;1;40.622994,-73.96427
11932;Bridgehampton;NY;40.939075;-72.30514;-5;1;40.939075,-72.30514
12242;Albany;NY;42.614852;-73.970812;-5;1;42.614852,-73.970812
11106;Astoria;NY;40.762012;-73.93147;-5;1;40.762012,-73.93147
10943;Middletown;NY;41.387822;-74.354699;-5;1;41.387822,-74.354699
10960;Nyack;NY;41.089746;-73.9258;-5;1;41.089746,-73.9258
12423;East Durham;NY;42.378679;-74.10443;-5;1;42.378679,-74.10443
14880;Scio;NY;42.170951;-77.97556;-5;1;42.170951,-77.97556
10126;New York;NY;40.780751;-73.977182;-5;1;40.780751,-73.977182
10629;White Plains;NY;41.119008;-73.732996;-5;1;41.119008,-73.732996
12234;Albany;NY;42.614852;-73.970812;-5;1;42.614852,-73.970812
11976;Water Mill;NY;40.919693;-72.34407;-5;1;40.919693,-72.34407
14877;Rexville;NY;42.060154;-77.68455;-5;1;42.060154,-77.68455
11520;Freeport;NY;40.653935;-73.587;-5;1;40.653935,-73.587
12110;Latham;NY;42.74964;-73.76802;-5;1;42.74964,-73.76802
14905;Elmira;NY;42.087824;-76.83686;-5;1;42.087824,-76.83686
11240;Brooklyn;NY;40.645099;-73.945032;-5;1;40.645099,-73.945032
11784;Selden;NY;40.869274;-73.04254;-5;1;40.869274,-73.04254
12262;Albany;NY;42.614852;-73.970812;-5;1;42.614852,-73.970812
12962;Morrisonville;NY;44.711769;-73.58219;-5;1;44.711769,-73.58219
14857;Lakemont;NY;42.515233;-76.92063;-5;1;42.515233,-76.92063
12824;Diamond Point;NY;43.50964;-73.69776;-5;1;43.50964,-73.69776
13102;McLean;NY;42.554215;-76.292723;-5;1;42.554215,-76.292723
11568;Old Westbury;NY;40.787368;-73.60119;-5;1;40.787368,-73.60119
12461;Olivebridge;NY;41.912356;-74.24724;-5;1;41.912356,-74.24724
13408;Morrisville;NY;42.923334;-75.66314;-5;1;42.923334,-75.66314
13470;Stratford;NY;43.180412;-74.66524;-5;1;43.180412,-74.66524
12821;Comstock;NY;43.461692;-73.40197;-5;1;43.461692,-73.40197
13353;Hoffmeister;NY;43.392434;-74.72675;-5;1;43.392434,-74.72675
12032;Caroga Lake;NY;43.158567;-74.49646;-5;1;43.158567,-74.49646
12485;Tannersville;NY;42.199479;-74.12514;-5;1;42.199479,-74.12514
13083;Lacona;NY;43.647881;-76.0167;-5;1;43.647881,-76.0167
10452;Bronx;NY;40.838745;-73.92234;-5;1;40.838745,-73.92234
11767;Nesconset;NY;40.842962;-73.14303;-5;1;40.842962,-73.14303
13424;Oriskany;NY;43.158258;-75.34281;-5;1;43.158258,-75.34281
13201;Syracuse;NY;43.02143;-76.197701;-5;1;43.02143,-76.197701
14813;Belmont;NY;42.238994;-78.01907;-5;1;42.238994,-78.01907
12811;Bakers Mills;NY;43.62422;-74.061201;-5;1;43.62422,-74.061201
14714;Black Creek;NY;42.279786;-78.23769;-5;1;42.279786,-78.23769
12586;Walden;NY;41.563701;-74.1755;-5;1;41.563701,-74.1755
10471;Bronx;NY;40.900819;-73.90347;-5;1;40.900819,-73.90347
11815;Hicksville;NY;40.754757;-73.601772;-5;1;40.754757,-73.601772
12086;Hagaman;NY;42.981745;-74.14257;-5;1;42.981745,-74.14257
14860;Lodi;NY;42.590355;-76.84745;-5;1;42.590355,-76.84745
10281;New York;NY;40.714643;-74.014958;-5;1;40.714643,-74.014958
11244;Brooklyn;NY;40.645099;-73.945032;-5;1;40.645099,-73.945032
12983;Saranac Lake;NY;44.324736;-74.16843;-5;1;44.324736,-74.16843
10256;New York;NY;40.780751;-73.977182;-5;1;40.780751,-73.977182
11516;Cedarhurst;NY;40.627386;-73.72852;-5;1;40.627386,-73.72852
13148;Seneca Falls;NY;42.924166;-76.78366;-5;1;42.924166,-76.78366
10014;New York;NY;40.734718;-74.00532;-5;1;40.734718,-74.00532
11381;Flushing;NY;40.651378;-73.870779;-5;1;40.651378,-73.870779
10106;New York;NY;40.765243;-73.980438;-5;1;40.765243,-73.980438
13027;Baldwinsville;NY;43.165134;-76.33901;-5;1;43.165134,-76.33901
13796;Laurens;NY;42.540359;-75.14604;-5;1;42.540359,-75.14604
14586;West Henrietta;NY;43.040271;-77.68215000000001;-5;1;43.040271,-77.68215
13482;West Burlington;NY;42.704333;-75.184913;-5;1;42.704333,-75.184913
14543;Rush;NY;42.98723;-77.67433;-5;1;42.98723,-77.67433
13489;West Leyden;NY;43.453661;-75.52172;-5;1;43.453661,-75.52172
12170;Stillwater;NY;42.975154;-73.66576;-5;1;42.975154,-73.66576
11040;New Hyde Park;NY;40.742901;-73.67895;-5;1;40.742901,-73.67895
11724;Cold Spring Harbor;NY;40.865731;-73.44645;-5;1;40.865731,-73.44645
12180;Troy;NY;42.731628;-73.66465;-5;1;42.731628,-73.66465
13478;Verona;NY;43.141727;-75.57702;-5;1;43.141727,-75.57702
14785;Stow;NY;42.155693;-79.412233;-5;1;42.155693,-79.412233
14807;Arkport;NY;42.410387;-77.71394;-5;1;42.410387,-77.71394
13622;Chaumont;NY;44.0958;-76.11992;-5;1;44.0958,-76.11992
14603;Rochester;NY;43.161613;-77.606774;-5;1;43.161613,-77.606774
13774;Fishs Eddy;NY;41.965435;-75.17968;-5;1;41.965435,-75.17968
10521;Croton On Hudson;NY;41.234256;-73.926165;-5;1;41.234256,-73.926165
12041;Clarksville;NY;42.543326;-73.97403;-5;1;42.543326,-73.97403
12157;Schoharie;NY;42.668825;-74.30134;-5;1;42.668825,-74.30134
10172;New York;NY;40.755494;-73.97447;-5;1;40.755494,-73.97447
10199;New York;NY;40.750308;-74.00058;-5;1;40.750308,-74.00058
11225;Brooklyn;NY;40.662892;-73.95509;-5;1;40.662892,-73.95509
13696;West Stockholm;NY;44.69563;-74.89998;-5;1;44.69563,-74.89998
14618;Rochester;NY;43.116713;-77.55904;-5;1;43.116713,-77.55904
10979;Sterling Forest;NY;41.182344;-74.318354;-5;1;41.182344,-74.318354
12920;Chateaugay;NY;44.901543;-74.06054;-5;1;44.901543,-74.06054
14456;Geneva;NY;42.853039;-76.99394;-5;1;42.853039,-76.99394
12072;Fultonville;NY;42.896974;-74.37495;-5;1;42.896974,-74.37495
14424;Canandaigua;NY;42.85297;-77.29466;-5;1;42.85297,-77.29466
12470;Purling;NY;42.284773;-74.02388;-5;1;42.284773,-74.02388
13250;Syracuse;NY;43.02143;-76.197701;-5;1;43.02143,-76.197701
14613;Rochester;NY;43.182163;-77.63794;-5;1;43.182163,-77.63794
13345;Greig;NY;43.818705;-75.480342;-5;1;43.818705,-75.480342
12903;Plattsburgh;NY;44.683468;-73.44639;-5;1;44.683468,-73.44639
14009;Arcade;NY;42.582693;-78.40069;-5;1;42.582693,-78.40069
10292;New York;NY;40.780751;-73.977182;-5;1;40.780751,-73.977182
10023;New York;NY;40.776099;-73.98285;-5;1;40.776099,-73.98285
11101;Long Island City;NY;40.745341;-73.93907;-5;1;40.745341,-73.93907
13494;Woodgate;NY;43.524904;-75.142771;-5;1;43.524904,-75.142771
10035;New York;NY;40.802395;-73.93359;-5;1;40.802395,-73.93359
14206;Buffalo;NY;42.880105;-78.81049;-5;1;42.880105,-78.81049
12165;Spencertown;NY;42.317959;-73.51802;-5;1;42.317959,-73.51802
13221;Syracuse;NY;43.02143;-76.197701;-5;1;43.02143,-76.197701
14733;Falconer;NY;42.128469;-79.19126;-5;1;42.128469,-79.19126
14873;Prattsburgh;NY;42.525335;-77.29673;-5;1;42.525335,-77.29673
14568;Walworth;NY;43.134783;-77.28515;-5;1;43.134783,-77.28515
10927;Haverstraw;NY;41.196044;-73.96836;-5;1;41.196044,-73.96836
11245;Brooklyn;NY;40.645099;-73.945032;-5;1;40.645099,-73.945032
12010;Amsterdam;NY;42.940644;-74.17899;-5;1;42.940644,-74.17899
12190;Wells;NY;43.43305;-74.2901;-5;1;43.43305,-74.2901
12405;Acra;NY;42.320081;-74.07288;-5;1;42.320081,-74.07288
12865;Salem;NY;43.200351;-73.3526;-5;1;43.200351,-73.3526
14133;Sandusky;NY;42.489129;-78.366991;-5;1;42.489129,-78.366991
14605;Rochester;NY;43.167563;-77.6012;-5;1;43.167563,-77.6012
11429;Queens Village;NY;40.708833;-73.73903;-5;1;40.708833,-73.73903
10467;Bronx;NY;40.872265;-73.86937;-5;1;40.872265,-73.86937
12850;Middle Grove;NY;43.092312;-73.97033;-5;1;43.092312,-73.97033
13601;Watertown;NY;43.976735;-75.91199;-5;1;43.976735,-75.91199
10261;New York;NY;40.780751;-73.977182;-5;1;40.780751,-73.977182
11764;Miller Place;NY;40.946506;-72.98837;-5;1;40.946506,-72.98837
11967;Shirley;NY;40.794317;-72.87181;-5;1;40.794317,-72.87181
12069;Fort Hunter;NY;42.945701;-74.263312;-5;1;42.945701,-74.263312
12746;Huguenot;NY;41.436732;-74.64558;-5;1;41.436732,-74.64558
13122;New Woodstock;NY;42.837642;-75.84778;-5;1;42.837642,-75.84778
13416;Newport;NY;43.178528;-74.98117;-5;1;43.178528,-74.98117
10610;White Plains;NY;41.119008;-73.732996;-5;1;41.119008,-73.732996
11231;Brooklyn;NY;40.6788;-74.00254;-5;1;40.6788,-74.00254
11380;Elmhurst;NY;40.651378;-73.870779;-5;1;40.651378,-73.870779
13634;Dexter;NY;44.015332;-76.05711;-5;1;44.015332,-76.05711
14240;Buffalo;NY;42.768413;-78.887094;-5;1;42.768413,-78.887094
11569;Point Lookout;NY;40.593996;-73.58039;-5;1;40.593996,-73.58039
11934;Center Moriches;NY;40.797772;-72.79719;-5;1;40.797772,-72.79719
14542;Rose;NY;43.144795;-76.860779;-5;1;43.144795,-76.860779
10921;Florida;NY;41.332519;-74.35931;-5;1;41.332519,-74.35931
13761;Endicott;NY;42.206745;-75.74488;-5;1;42.206745,-75.74488
14830;Corning;NY;42.140881;-77.04793;-5;1;42.140881,-77.04793
12788;Woodbourne;NY;41.784477;-74.59109;-5;1;41.784477,-74.59109
13364;Leonardsville;NY;42.954541;-75.616793;-5;1;42.954541,-75.616793
10013;New York;NY;40.720666;-74.00526;-5;1;40.720666,-74.00526
10958;New Hampton;NY;41.384738;-74.41571;-5;1;41.384738,-74.41571
13640;Wellesley Island;NY;44.318866;-75.99068;-5;1;44.318866,-75.99068
14751;Leon;NY;42.298328;-79.006231;-5;1;42.298328,-79.006231
10129;New York;NY;40.780751;-73.977182;-5;1;40.780751,-73.977182
11243;Brooklyn;NY;40.645099;-73.945032;-5;1;40.645099,-73.945032
12256;Albany;NY;42.614852;-73.970812;-5;1;42.614852,-73.970812
12835;Hadley;NY;43.292593;-73.978;-5;1;43.292593,-73.978
13339;Fort Plain;NY;42.943602;-74.64717;-5;1;42.943602,-74.64717
11766;Mount Sinai;NY;40.929242;-73.01317;-5;1;40.929242,-73.01317
12168;Stephentown;NY;42.552127;-73.39593;-5;1;42.552127,-73.39593
13132;Pennellville;NY;43.262012;-76.22912;-5;1;43.262012,-76.22912
12189;Watervliet;NY;42.729278;-73.70913;-5;1;42.729278,-73.70913
12227;Albany;NY;42.614852;-73.970812;-5;1;42.614852,-73.970812
12548;Modena;NY;41.664239;-74.1106;-5;1;41.664239,-74.1106
10152;New York;NY;40.758611;-73.97223;-5;1;40.758611,-73.97223
11964;Shelter Island;NY;41.060843;-72.33159;-5;1;41.060843,-72.33159
13756;East Branch;NY;42.018923;-75.11339;-5;1;42.018923,-75.11339
13777;Glen Aubrey;NY;42.254154;-76.01194;-5;1;42.254154,-76.01194
10132;New York;NY;40.780751;-73.977182;-5;1;40.780751,-73.977182
12153;Sand Lake;NY;42.638579;-73.48051;-5;1;42.638579,-73.48051
12805;Argyle;NY;43.246117;-73.455519;-5;1;43.246117,-73.455519
13039;Cicero;NY;43.171707;-76.09505;-5;1;43.171707,-76.09505
13077;Homer;NY;42.680693;-76.18566;-5;1;42.680693,-76.18566
13442;Rome;NY;43.239274;-75.47796;-5;1;43.239274,-75.47796
13842;South Kortright;NY;42.376254;-74.72258;-5;1;42.376254,-74.72258
14217;Buffalo;NY;42.968707;-78.8745;-5;1;42.968707,-78.8745
14601;Rochester;NY;43.286024;-77.684264;-5;1;43.286024,-77.684264
10031;New York;NY;40.826201;-73.94879;-5;1;40.826201,-73.94879
13308;Blossvale;NY;43.236303;-75.68087;-5;1;43.236303,-75.68087
13608;Antwerp;NY;44.243007;-75.60331;-5;1;44.243007,-75.60331
14745;Hume;NY;42.4777;-78.140343;-5;1;42.4777,-78.140343
13599;Utica;NY;43.239274;-75.47796;-5;1;43.239274,-75.47796
14486;Linwood;NY;42.915297;-77.949818;-5;1;42.915297,-77.949818
11958;Peconic;NY;41.03687;-72.45341;-5;1;41.03687,-72.45341
12602;Poughkeepsie;NY;41.759905;-73.743714;-5;1;41.759905,-73.743714
13203;Syracuse;NY;43.061116;-76.13733;-5;1;43.061116,-76.13733
13318;Cassville;NY;42.937739;-75.24946;-5;1;42.937739,-75.24946
10913;Blauvelt;NY;41.062779;-73.96016;-5;1;41.062779,-73.96016
10707;Tuckahoe;NY;40.958689;-73.82363;-5;1;40.958689,-73.82363
12555;Mid Hudson;NY;41.387822;-74.354699;-5;1;41.387822,-74.354699
10257;New York;NY;40.780751;-73.977182;-5;1;40.780751,-73.977182
14462;Groveland;NY;42.681361;-77.75302;-5;1;42.681361,-77.75302
10462;Bronx;NY;40.842173;-73.85862;-5;1;40.842173,-73.85862
13783;Hancock;NY;41.985839;-75.28214;-5;1;41.985839,-75.28214
12585;Verbank;NY;41.721384;-73.7162;-5;1;41.721384,-73.7162
13456;Sauquoit;NY;43.005669;-75.26202;-5;1;43.005669,-75.26202
14766;Otto;NY;42.357543;-78.807283;-5;1;42.357543,-78.807283
12581;Stanfordville;NY;41.89187;-73.69888;-5;1;41.89187,-73.69888
13342;Garrattsville;NY;42.64743;-75.17793;-5;1;42.64743,-75.17793
11010;Franklin Square;NY;40.701702;-73.67562;-5;1;40.701702,-73.67562
11105;Astoria;NY;40.774686;-73.90816;-5;1;40.774686,-73.90816
14480;Lakeville;NY;42.837786;-77.70625;-5;1;42.837786,-77.70625
12301;Schenectady;NY;42.833261;-74.058015;-5;1;42.833261,-74.058015
10020;New York;NY;40.758667;-73.98024;-5;1;40.758667,-73.98024
13550;Herkimer;NY;43.026416;-74.982271;-5;1;43.026416,-74.982271
14125;Oakfield;NY;43.077433;-78.27816;-5;1;43.077433,-78.27816
10545;Maryknoll;NY;41.119008;-73.732996;-5;1;41.119008,-73.732996
11247;Brooklyn;NY;40.645099;-73.945032;-5;1;40.645099,-73.945032
12120;Medusa;NY;42.456127;-74.14059;-5;1;42.456127,-74.14059
11753;Jericho;NY;40.786544;-73.53675;-5;1;40.786544,-73.53675
12574;Rhinecliff;NY;41.915068;-73.95173;-5;1;41.915068,-73.95173
13409;Munnsville;NY;42.967906;-75.59457;-5;1;42.967906,-75.59457
14435;Conesus;NY;42.706781;-77.68103;-5;1;42.706781,-77.68103
10984;Thiells;NY;41.208327;-74.02105;-5;1;41.208327,-74.02105
12040;Cherry Plain;NY;42.646742;-73.371611;-5;1;42.646742,-73.371611
11232;Brooklyn;NY;40.655481;-74.00424;-5;1;40.655481,-74.00424
12998;Witherbee;NY;44.08267;-73.530601;-5;1;44.08267,-73.530601
14267;Buffalo;NY;42.768413;-78.887094;-5;1;42.768413,-78.887094
13162;Verona Beach;NY;43.18852;-75.712551;-5;1;43.18852,-75.712551
10469;Bronx;NY;40.868643;-73.84735;-5;1;40.868643,-73.84735
11362;Little Neck;NY;40.759686;-73.73322;-5;1;40.759686,-73.73322
14782;Sinclairville;NY;42.265234;-79.26035;-5;1;42.265234,-79.26035
12066;Esperance;NY;42.784091;-74.3116;-5;1;42.784091,-74.3116
11204;Brooklyn;NY;40.618944;-73.98473;-5;1;40.618944,-73.98473
11388;Flushing;NY;40.651378;-73.870779;-5;1;40.651378,-73.870779
14722;Chautauqua;NY;42.187468;-79.450523;-5;1;42.187468,-79.450523
14846;Hunt;NY;42.542056;-77.99501;-5;1;42.542056,-77.99501
14826;Cohocton;NY;42.484672;-77.49846;-5;1;42.484672,-77.49846
12473;Round Top;NY;42.260709;-74.03078;-5;1;42.260709,-74.03078
10280;New York;NY;40.707467;-74.0178;-5;1;40.707467,-74.0178
10931;Hillburn;NY;41.126395;-74.16718;-5;1;41.126395,-74.16718
11598;Woodmere;NY;40.633103;-73.71404;-5;1;40.633103,-73.71404
13849;Unadilla;NY;42.343576;-75.3146;-5;1;42.343576,-75.3146
12843;Johnsburg;NY;43.569961;-73.98345;-5;1;43.569961,-73.98345
10022;New York;NY;40.759015;-73.96732;-5;1;40.759015,-73.96732
10171;New York;NY;40.756099;-73.97401;-5;1;40.756099,-73.97401
14001;Akron;NY;43.024558999999996;-78.50414;-5;1;43.024559,-78.50414
13838;Sidney;NY;42.304177;-75.39563;-5;1;42.304177,-75.39563
14820;Cameron Mills;NY;42.192615;-77.35979;-5;1;42.192615,-77.35979
14033;Colden;NY;42.655098;-78.68472;-5;1;42.655098,-78.68472
11704;West Babylon;NY;40.719249;-73.35829;-5;1;40.719249,-73.35829
14458;Lima;NY;42.855029;-77.668326;-5;1;42.855029,-77.668326
14538;Pultneyville;NY;43.283582;-77.142027;-5;1;43.283582,-77.142027
13901;Binghamton;NY;42.142575;-75.88783;-5;1;42.142575,-75.88783
14783;Steamburg;NY;42.100539;-78.87967;-5;1;42.100539,-78.87967
12978;Redford;NY;44.664956;-73.761204;-5;1;44.664956,-73.761204
13153;Skaneateles Falls;NY;42.991112;-76.451147;-5;1;42.991112,-76.451147
14304;Niagara Falls;NY;43.091106;-78.96249;-5;1;43.091106,-78.96249
13695;Wanakena;NY;44.140791;-74.912493;-5;1;44.140791,-74.912493
10514;Chappaqua;NY;41.167455;-73.77597;-5;1;41.167455,-73.77597
12077;Glenmont;NY;42.600551;-73.79621;-5;1;42.600551,-73.79621
12087;Hannacroix;NY;42.434883;-73.89271;-5;1;42.434883,-73.89271
12885;Warrensburg;NY;43.538744;-73.80527;-5;1;43.538744,-73.80527
14212;Buffalo;NY;42.894758;-78.82303;-5;1;42.894758,-78.82303
11562;Lynbrook;NY;40.665202;-73.668274;-5;1;40.665202,-73.668274
11714;Bethpage;NY;40.740662;-73.48631;-5;1;40.740662,-73.48631
11786;Shoreham;NY;40.94993;-72.89533;-5;1;40.94993,-72.89533
12955;Lyon Mountain;NY;44.787489;-73.98702;-5;1;44.787489,-73.98702
14204;Buffalo;NY;42.884008;-78.86152;-5;1;42.884008,-78.86152
14822;Canaseraga;NY;42.442261;-77.84125;-5;1;42.442261,-77.84125
12063;East Schodack;NY;42.559697;-73.63335000000001;-5;1;42.559697,-73.63335
14432;Clifton Springs;NY;42.965372;-77.14416;-5;1;42.965372,-77.14416
10302;Staten Island;NY;40.631127;-74.13715;-5;1;40.631127,-74.13715
11501;Mineola;NY;40.747188;-73.63808;-5;1;40.747188,-73.63808
12950;Lewis;NY;44.322102;-73.5404;-5;1;44.322102,-73.5404
13321;Clark Mills;NY;43.090027;-75.387088;-5;1;43.090027,-75.387088
14101;Machias;NY;42.393206;-78.52655;-5;1;42.393206,-78.52655
10111;New York;NY;40.759235;-73.97775;-5;1;40.759235,-73.97775
14853;Ithaca;NY;42.447373;-76.483703;-5;1;42.447373,-76.483703
14639;Rochester;NY;43.286024;-77.684264;-5;1;43.286024,-77.684264
14272;Buffalo;NY;42.768413;-78.887094;-5;1;42.768413,-78.887094
14026;Bowmansville;NY;42.941025;-78.68548;-5;1;42.941025,-78.68548
14731;Ellicottville;NY;42.286037;-78.65425;-5;1;42.286037,-78.65425
11553;Uniondale;NY;40.703502;-73.59306;-5;1;40.703502,-73.59306
12980;Saint Regis Falls;NY;44.63091;-74.53721;-5;1;44.63091,-74.53721
14470;Holley;NY;43.221689;-78.04393;-5;1;43.221689,-78.04393
10197;New York;NY;40.780751;-73.977182;-5;1;40.780751,-73.977182
12035;Central Bridge;NY;42.722477;-74.35064;-5;1;42.722477,-74.35064
13080;Jordan;NY;43.07446;-76.47874;-5;1;43.07446,-76.47874
12561;New Paltz;NY;41.751566;-74.09475;-5;1;41.751566,-74.09475
12778;Smallwood;NY;41.65974;-74.812;-5;1;41.65974,-74.812
13645;Hailesboro;NY;44.533125;-75.192865;-5;1;44.533125,-75.192865
10976;Sparkill;NY;41.028647;-73.92817;-5;1;41.028647,-73.92817
13368;Lyons Falls;NY;43.637104;-75.3483;-5;1;43.637104,-75.3483
10530;Hartsdale;NY;41.025114;-73.80635;-5;1;41.025114,-73.80635
10473;Bronx;NY;40.818514;-73.85893;-5;1;40.818514,-73.85893
10983;Tappan;NY;41.025897;-73.95118;-5;1;41.025897,-73.95118
13830;Oxford;NY;42.428818;-75.62459;-5;1;42.428818,-75.62459
13846;Treadwell;NY;42.344248;-75.05323;-5;1;42.344248,-75.05323
14225;Buffalo;NY;42.929891;-78.75813;-5;1;42.929891,-78.75813
13056;East Homer;NY;42.677155;-76.105201;-5;1;42.677155,-76.105201
13317;Canajoharie;NY;42.867490000000004;-74.57435;-5;1;42.86749,-74.57435
10274;New York;NY;40.780751;-73.977182;-5;1;40.780751,-73.977182
10590;South Salem;NY;41.256639;-73.54076;-5;1;41.256639,-73.54076
11256;Brooklyn;NY;40.645099;-73.945032;-5;1;40.645099,-73.945032
11593;Westbury;NY;40.754757;-73.601772;-5;1;40.754757,-73.601772
12177;Tribes Hill;NY;42.95002;-74.296985;-5;1;42.95002,-74.296985
12237;Albany;NY;42.614852;-73.970812;-5;1;42.614852,-73.970812
12578;Salt Point;NY;41.803384;-73.78147;-5;1;41.803384,-73.78147
13651;Henderson Harbor;NY;43.870842;-76.180886;-5;1;43.870842,-76.180886
13603;Watertown;NY;44.030204;-75.81845;-5;1;44.030204,-75.81845
11423;Hollis;NY;40.714261;-73.76824;-5;1;40.714261,-73.76824
12492;West Kill;NY;42.209414;-74.34767;-5;1;42.209414,-74.34767
13205;Syracuse;NY;43.010916;-76.14501;-5;1;43.010916,-76.14501
13784;Harford;NY;42.431068;-76.159312;-5;1;42.431068,-76.159312
10006;New York;NY;40.707904;-74.01342;-5;1;40.707904,-74.01342
14787;Westfield;NY;42.327029;-79.57301;-5;1;42.327029,-79.57301
12844;Kattskill Bay;NY;43.495335;-73.62987;-5;1;43.495335,-73.62987
10604;West Harrison;NY;41.045387;-73.74451;-5;1;41.045387,-73.74451
11373;Elmhurst;NY;40.736076;-73.87804;-5;1;40.736076,-73.87804
13660;Madrid;NY;44.758378;-75.14571;-5;1;44.758378,-75.14571
12074;Galway;NY;43.068203;-74.05526;-5;1;43.068203,-74.05526
10313;Staten Island;NY;40.564393;-74.146836;-5;1;40.564393,-74.146836
12729;Cuddebackville;NY;41.475235;-74.60276;-5;1;41.475235,-74.60276
13251;Syracuse;NY;43.02143;-76.197701;-5;1;43.02143,-76.197701
13795;Kirkwood;NY;42.056312;-75.79275;-5;1;42.056312,-75.79275
11103;Astoria;NY;40.762968;-73.91091;-5;1;40.762968,-73.91091
14205;Buffalo;NY;42.768413;-78.887094;-5;1;42.768413,-78.887094
14428;Churchville;NY;43.079181;-77.87334;-5;1;43.079181,-77.87334
13154;South Butler;NY;43.134425;-76.765591;-5;1;43.134425,-76.765591
10196;New York;NY;40.780751;-73.977182;-5;1;40.780751,-73.977182
13420;Old Forge;NY;43.707330999999996;-74.94498;-5;1;43.707331,-74.94498
14621;Rochester;NY;43.185163;-77.60368;-5;1;43.185163,-77.60368
10996;West Point;NY;41.376109;-73.9788;-5;1;41.376109,-73.9788
11801;Hicksville;NY;40.763355;-73.52323;-5;1;40.763355,-73.52323
12745;Hortonville;NY;41.762944;-75.030592;-5;1;41.762944,-75.030592
13029;Brewerton;NY;43.225081;-76.13966;-5;1;43.225081,-76.13966
11769;Oakdale;NY;40.736011;-73.1296;-5;1;40.736011,-73.1296
11952;Mattituck;NY;40.994649;-72.53731;-5;1;40.994649,-72.53731
11741;Holbrook;NY;40.799706;-73.07485;-5;1;40.799706,-73.07485
13438;Remsen;NY;43.349682;-75.15821;-5;1;43.349682,-75.15821
14513;Newark;NY;43.052126;-77.09424;-5;1;43.052126,-77.09424
10542;Mahopac Falls;NY;41.372581;-73.760132;-5;1;41.372581,-73.760132
13731;Andes;NY;42.152105;-74.78184;-5;1;42.152105,-74.78184
12057;Eagle Bridge;NY;42.959229;-73.35236;-5;1;42.959229,-73.35236
14410;Adams Basin;NY;43.195261;-77.855883;-5;1;43.195261,-77.855883
13666;Newton Falls;NY;44.533125;-75.192865;-5;1;44.533125,-75.192865
11386;Ridgewood;NY;40.651378;-73.870779;-5;1;40.651378,-73.870779
12090;Hoosick Falls;NY;42.888816;-73.3555;-5;1;42.888816,-73.3555
13692;Thousand Island Park;NY;44.289833;-76.02621;-5;1;44.289833,-76.02621
14720;Celoron;NY;42.105907;-79.27912;-5;1;42.105907,-79.27912
12770;Pond Eddy;NY;41.44515;-74.84003;-5;1;41.44515,-74.84003
13758;East Pharsalia;NY;42.583518;-75.721931;-5;1;42.583518,-75.721931
11757;Lindenhurst;NY;40.690049;-73.37442;-5;1;40.690049,-73.37442
13310;Bouckville;NY;42.88821;-75.5688;-5;1;42.88821,-75.5688
14812;Beaver Dams;NY;42.286649;-76.9766;-5;1;42.286649,-76.9766
13562;Hermon;NY;44.465307;-75.230195;-5;1;44.465307,-75.230195
10702;Yonkers;NY;41.119008;-73.732996;-5;1;41.119008,-73.732996
11729;Deer Park;NY;40.760698;-73.33007;-5;1;40.760698,-73.33007
14305;Niagara Falls;NY;43.115355;-79.03769;-5;1;43.115355,-79.03769
11691;Far Rockaway;NY;40.60002;-73.75962;-5;1;40.60002,-73.75962
12981;Saranac;NY;44.617642000000004;-73.81196;-5;1;44.617642,-73.81196
14005;Alexander;NY;42.906765;-78.24581;-5;1;42.906765,-78.24581
14056;East Pembroke;NY;42.991173;-78.312171;-5;1;42.991173,-78.312171
14743;Hinsdale;NY;42.203691;-78.407;-5;1;42.203691,-78.407
13022;Auburn;NY;43.163364;-76.509567;-5;1;43.163364,-76.509567
12534;Hudson;NY;42.22948;-73.75846;-5;1;42.22948,-73.75846
12814;Bolton Landing;NY;43.582318;-73.65515;-5;1;43.582318,-73.65515
13031;Camillus;NY;43.039916;-76.28757;-5;1;43.039916,-76.28757
10170;New York;NY;40.752859;-73.97608;-5;1;40.752859,-73.97608
13680;Rensselaer Falls;NY;44.593588;-75.32389;-5;1;44.593588,-75.32389
10710;Yonkers;NY;40.96555;-73.84506;-5;1;40.96555,-73.84506
11803;Plainview;NY;40.779911;-73.47948;-5;1;40.779911,-73.47948
14166;Van Buren Point;NY;42.4511;-79.415421;-5;1;42.4511,-79.415421
14838;Erin;NY;42.177019;-76.66687;-5;1;42.177019,-76.66687
13483;Westdale;NY;43.399851;-75.82785;-5;1;43.399851,-75.82785
11426;Bellerose;NY;40.732239;-73.72108;-5;1;40.732239,-73.72108
13089;Liverpool;NY;43.02143;-76.197701;-5;1;43.02143,-76.197701
12966;North Bangor;NY;44.812315;-74.40784;-5;1;44.812315,-74.40784
13327;Croghan;NY;43.932489;-75.29084;-5;1;43.932489,-75.29084
14025;Boston;NY;42.627312;-78.73768;-5;1;42.627312,-78.73768
10301;Staten Island;NY;40.631775;-74.09432;-5;1;40.631775,-74.09432
12081;Nassau;NY;42.59362;-73.566328;-5;1;42.59362,-73.566328
10275;New York;NY;40.780751;-73.977182;-5;1;40.780751,-73.977182
10705;Yonkers;NY;40.917281;-73.89142;-5;1;40.917281,-73.89142
11720;Centereach;NY;40.868946;-73.08009;-5;1;40.868946,-73.08009
12970;Paul Smiths;NY;44.454639;-74.28753;-5;1;44.454639,-74.28753
13605;Adams;NY;43.807654;-76.04936;-5;1;43.807654,-76.04936
13801;McDonough;NY;42.504765;-75.77739;-5;1;42.504765,-75.77739
14479;Knowlesville;NY;43.241502;-78.318828;-5;1;43.241502,-78.318828
12409;Bearsville;NY;42.061841;-74.16063;-5;1;42.061841,-74.16063
14060;Farmersville Station;NY;42.443406;-78.32302;-5;1;42.443406,-78.32302
10571;Pleasantville;NY;41.119008;-73.732996;-5;1;41.119008,-73.732996
10572;Pleasantville;NY;41.119008;-73.732996;-5;1;41.119008,-73.732996
11054;Port Washington;NY;40.754757;-73.601772;-5;1;40.754757,-73.601772
11104;Sunnyside;NY;40.743796;-73.91949;-5;1;40.743796,-73.91949
11939;East Marion;NY;41.128923;-72.34189;-5;1;41.128923,-72.34189
13030;Bridgeport;NY;43.164297;-75.96057;-5;1;43.164297,-75.96057
10178;New York;NY;40.751378;-73.978507;-5;1;40.751378,-73.978507
12061;East Greenbush;NY;42.593047;-73.67343;-5;1;42.593047,-73.67343
12483;Spring Glen;NY;41.663895;-74.424533;-5;1;41.663895,-74.424533
11351;Flushing;NY;40.781703;-73.831698;-5;1;40.781703,-73.831698
13355;Hubbardsville;NY;42.81488;-75.43424;-5;1;42.81488,-75.43424
12943;Keene Valley;NY;44.171625;-73.78131;-5;1;44.171625,-73.78131
11550;Hempstead;NY;40.702271;-73.61741;-5;1;40.702271,-73.61741
12722;Burlingham;NY;41.719016;-74.755373;-5;1;41.719016,-74.755373
12769;Phillipsport;NY;41.651453;-74.436159;-5;1;41.651453,-74.436159
12543;Maybrook;NY;41.484988;-74.2161;-5;1;41.484988,-74.2161
13324;Cold Brook;NY;43.317064;-74.97449;-5;1;43.317064,-74.97449
13460;Sherburne;NY;42.680051;-75.46547;-5;1;42.680051,-75.46547
14660;Rochester;NY;43.286024;-77.684264;-5;1;43.286024,-77.684264
10512;Carmel;NY;41.444833;-73.6845;-5;1;41.444833,-73.6845
12184;Valatie;NY;42.426901;-73.66405;-5;1;42.426901,-73.66405
14039;Dale;NY;42.829129;-78.17657;-5;1;42.829129,-78.17657
14466;Hemlock;NY;42.787276;-77.58983;-5;1;42.787276,-77.58983
10995;West Nyack;NY;41.160945;-74.060826;-5;1;41.160945,-74.060826
14064;Rochester;NY;43.158013;-77.607049;-5;1;43.158013,-77.607049
14221;Buffalo;NY;42.977456;-78.73356;-5;1;42.977456,-78.73356
14551;Sodus;NY;43.226024;-77.03599;-5;1;43.226024,-77.03599
10043;New York;NY;40.780751;-73.977182;-5;1;40.780751,-73.977182
10461;Bronx;NY;40.842917;-73.83819;-5;1;40.842917,-73.83819
11208;Brooklyn;NY;40.672666;-73.87248;-5;1;40.672666,-73.87248
11213;Brooklyn;NY;40.670937;-73.93459;-5;1;40.670937,-73.93459
12916;Brushton;NY;44.830736;-74.51434;-5;1;44.830736,-74.51434
12166;Sprakers;NY;42.831683;-74.45667;-5;1;42.831683,-74.45667
13357;Ilion;NY;42.992323;-75.0615;-5;1;42.992323,-75.0615
13749;Corbettsville;NY;42.206745;-75.74488;-5;1;42.206745,-75.74488
14507;Middlesex;NY;42.702921;-77.27447;-5;1;42.702921,-77.27447
11592;Rockville Centre;NY;40.621753;-73.632673;-5;1;40.621753,-73.632673
12725;Claryville;NY;41.926119;-74.55675;-5;1;41.926119,-74.55675
12783;Swan Lake;NY;41.736523;-74.82634;-5;1;41.736523,-74.82634
12924;Keeseville;NY;44.706561;-73.744555;-5;1;44.706561,-73.744555
13214;Syracuse;NY;43.038099;-76.07635;-5;1;43.038099,-76.07635
12974;Port Henry;NY;44.041901;-73.46132;-5;1;44.041901,-73.46132
14041;Dayton;NY;42.408583;-78.984391;-5;1;42.408583,-78.984391
14066;Gainesville;NY;42.619549;-78.16153;-5;1;42.619549,-78.16153
14706;Allegany;NY;42.10143;-78.51587;-5;1;42.10143,-78.51587
11706;Bay Shore;NY;40.729098;-73.25607;-5;1;40.729098,-73.25607
12480;Shandaken;NY;42.142121;-74.4065;-5;1;42.142121,-74.4065
14086;Lancaster;NY;42.904258;-78.65519;-5;1;42.904258,-78.65519
13138;Pompey;NY;42.89274;-76.026459;-5;1;42.89274,-76.026459
13775;Franklin;NY;42.333285;-75.16086;-5;1;42.333285,-75.16086
13787;Harpursville;NY;42.197905;-75.65578;-5;1;42.197905,-75.65578
12588;Walker Valley;NY;41.878801;-74.345684;-5;1;41.878801,-74.345684
12915;Brainardsville;NY;44.552725;-74.317958;-5;1;44.552725,-74.317958
13035;Cazenovia;NY;42.938816;-75.83037;-5;1;42.938816,-75.83037
13804;Masonville;NY;42.215297;-75.35815;-5;1;42.215297,-75.35815
14898;Woodhull;NY;42.065376;-77.42392;-5;1;42.065376,-77.42392
11001;Floral Park;NY;40.7232;-73.70475;-5;1;40.7232,-73.70475
11946;Hampton Bays;NY;40.875897;-72.52063;-5;1;40.875897,-72.52063
13754;Deposit;NY;42.076427;-75.44551;-5;1;42.076427,-75.44551
13732;Apalachin;NY;42.059433;-76.14733;-5;1;42.059433,-76.14733
14638;Rochester;NY;43.286024;-77.684264;-5;1;43.286024,-77.684264
14879;Savona;NY;42.330602;-77.19305;-5;1;42.330602,-77.19305
10167;New York;NY;40.754862;-73.97495;-5;1;40.754862,-73.97495
10169;New York;NY;40.754463;-73.97606;-5;1;40.754463,-73.97606
11358;Flushing;NY;40.760522;-73.79612;-5;1;40.760522,-73.79612
12812;Blue Mountain Lake;NY;43.865351;-74.43366;-5;1;43.865351,-74.43366
12977;Ray Brook;NY;44.145678;-73.815204;-5;1;44.145678,-73.815204
14871;Pine City;NY;42.048032;-76.90521;-5;1;42.048032,-76.90521
14850;Ithaca;NY;42.449454;-76.49685;-5;1;42.449454,-76.49685
12580;Staatsburg;NY;41.854465;-73.89922;-5;1;41.854465,-73.89922
12946;Lake Placid;NY;44.292147;-73.95985;-5;1;44.292147,-73.95985
13444;Plymouth;NY;42.637549;-75.672508;-5;1;42.637549,-75.672508
11583;Valley Stream;NY;40.754757;-73.601772;-5;1;40.754757,-73.601772
13736;Berkshire;NY;42.306877;-76.204;-5;1;42.306877,-76.204
14216;Buffalo;NY;42.949707;-78.85923;-5;1;42.949707,-78.85923
11424;Jamaica;NY;40.651378;-73.870779;-5;1;40.651378,-73.870779
11590;Westbury;NY;40.756287;-73.57536;-5;1;40.756287,-73.57536
12076;Gilboa;NY;42.425405;-74.40616;-5;1;42.425405,-74.40616
12174;Stuyvesant Falls;NY;42.343986;-73.73477;-5;1;42.343986,-73.73477
12490;West Camp;NY;42.108689;-73.934577;-5;1;42.108689,-73.934577
12862;Riparius;NY;43.675377;-73.932509;-5;1;43.675377,-73.932509
13834;Portlandville;NY;42.536475;-74.96218;-5;1;42.536475,-74.96218
11239;Brooklyn;NY;40.645848;-73.87919;-5;1;40.645848,-73.87919
12493;West Park;NY;41.805576;-73.96845;-5;1;41.805576,-73.96845
12743;Highland Lake;NY;41.53481;-74.84656;-5;1;41.53481,-74.84656
12518;Cornwall;NY;41.434476;-74.03584;-5;1;41.434476,-74.03584
10098;New York;NY;40.748181;-73.988421;-5;1;40.748181,-73.988421
12546;Millerton;NY;41.961002;-73.52011;-5;1;41.961002,-73.52011
10115;New York;NY;40.810906;-73.96375;-5;1;40.810906,-73.96375
11518;East Rockaway;NY;40.639575;-73.66703;-5;1;40.639575,-73.66703
14069;Glenwood;NY;42.601635;-78.64273;-5;1;42.601635,-78.64273
10509;Brewster;NY;41.41362;-73.59556;-5;1;41.41362,-73.59556
13614;Brier Hill;NY;44.54141;-75.70576;-5;1;44.54141,-75.70576
14502;Macedon;NY;43.08786;-77.33068;-5;1;43.08786,-77.33068
14732;Ellington;NY;42.229098;-79.11347;-5;1;42.229098,-79.11347
12089;Hoosick;NY;42.866666;-73.318113;-5;1;42.866666,-73.318113
13146;Savannah;NY;43.09986;-76.75716;-5;1;43.09986,-76.75716
13244;Syracuse;NY;43.037716;-76.139646;-5;1;43.037716,-76.139646
14057;Eden;NY;42.651776;-78.87634;-5;1;42.651776,-78.87634
14102;Marilla;NY;42.838643;-78.55601;-5;1;42.838643,-78.55601
14778;Saint Bonaventure;NY;42.270112;-78.684684;-5;1;42.270112,-78.684684
11220;Brooklyn;NY;40.641436;-74.01574;-5;1;40.641436,-74.01574
12710;Neversink;NY;41.818926;-74.521638;-5;1;41.818926,-74.521638
12785;Westbrookville;NY;41.518125;-74.57566;-5;1;41.518125,-74.57566
12471;Rifton;NY;41.83962;-74.04033;-5;1;41.83962,-74.04033
13905;Binghamton;NY;42.121443;-75.93329;-5;1;42.121443,-75.93329
11352;Flushing;NY;40.651378;-73.870779;-5;1;40.651378,-73.870779
14024;Bliss;NY;42.579516;-78.24818;-5;1;42.579516,-78.24818
10543;Mamaroneck;NY;40.952892;-73.7346;-5;1;40.952892,-73.7346
12540;Lagrangeville;NY;41.656933;-73.74539;-5;1;41.656933,-73.74539
13841;Smithville Flats;NY;42.419896;-75.83772;-5;1;42.419896,-75.83772
10103;New York;NY;40.760915;-73.97785;-5;1;40.760915,-73.97785
12808;Adirondack;NY;43.758733;-73.76206;-5;1;43.758733,-73.76206
10005;New York;NY;40.706019;-74.00858;-5;1;40.706019,-74.00858
14072;Grand Island;NY;43.011823;-78.95914;-5;1;43.011823,-78.95914
12238;Albany;NY;42.614852;-73.970812;-5;1;42.614852,-73.970812
14429;Clarendon;NY;43.381027;-78.231338;-5;1;43.381027,-78.231338
10249;New York;NY;40.780751;-73.977182;-5;1;40.780751,-73.977182
14418;Branchport;NY;42.605481;-77.20117;-5;1;42.605481,-77.20117
12584;Vails Gate;NY;41.464073;-74.059104;-5;1;41.464073,-74.059104
10527;Granite Springs;NY;41.319026;-73.7576;-5;1;41.319026,-73.7576
13121;New Haven;NY;43.483379;-76.315044;-5;1;43.483379,-76.315044
13290;Syracuse;NY;43.075066;-76.17411;-5;1;43.075066,-76.17411
14710;Ashville;NY;42.098227;-79.40865;-5;1;42.098227,-79.40865
14139;South Wales;NY;42.716919;-78.53931;-5;1;42.716919,-78.53931
14855;Jasper;NY;42.135945;-77.5078;-5;1;42.135945,-77.5078
10523;Elmsford;NY;41.057089;-73.81658;-5;1;41.057089,-73.81658
11788;Hauppauge;NY;40.819266;-73.20967;-5;1;40.819266,-73.20967
12122;Middleburgh;NY;42.558318;-74.31458;-5;1;42.558318,-74.31458
12987;Upper Jay;NY;44.329473;-73.79282;-5;1;44.329473,-73.79282
13087;Little York;NY;42.706981;-76.156103;-5;1;42.706981,-76.156103
13165;Waterloo;NY;42.911377;-76.87027;-5;1;42.911377,-76.87027
13341;Franklin Springs;NY;43.036802;-75.39115;-5;1;43.036802,-75.39115
11439;Jamaica;NY;40.722008;-73.790822;-5;1;40.722008,-73.790822
12459;New Kingston;NY;42.227987;-74.68912;-5;1;42.227987,-74.68912
12965;Nicholville;NY;44.698253;-74.68843;-5;1;44.698253,-74.68843
13065;Fayette;NY;42.822662;-76.80197;-5;1;42.822662,-76.80197
10002;New York;NY;40.71704;-73.987;-5;1;40.71704,-73.987
10090;New York;NY;40.780751;-73.977182;-5;1;40.780751,-73.977182
10156;New York;NY;40.780751;-73.977182;-5;1;40.780751,-73.977182
10184;New York;NY;40.780751;-73.977182;-5;1;40.780751,-73.977182
14008;Appleton;NY;43.318768;-78.63328;-5;1;43.318768,-78.63328
14127;Orchard Park;NY;42.759917;-78.75294;-5;1;42.759917,-78.75294
12768;Parksville;NY;41.864326;-74.72961;-5;1;41.864326,-74.72961
14893;Wayne;NY;42.474143;-77.097713;-5;1;42.474143,-77.097713
11221;Brooklyn;NY;40.691234;-73.92637;-5;1;40.691234,-73.92637
14821;Campbell;NY;42.235058;-77.20491;-5;1;42.235058,-77.20491
10046;New York;NY;40.780751;-73.977182;-5;1;40.780751,-73.977182
10033;New York;NY;40.848764;-73.93496;-5;1;40.848764,-73.93496
11096;Inwood;NY;40.618206;-73.74762;-5;1;40.618206,-73.74762
11302;New York;NY;40.75945;-73.715016;-5;1;40.75945,-73.715016
14647;Rochester;NY;43.286024;-77.684264;-5;1;43.286024,-77.684264
10019;New York;NY;40.765714;-73.9856;-5;1;40.765714,-73.9856
12132;North Chatham;NY;42.466061;-73.629296;-5;1;42.466061,-73.629296
12447;Saugerties;NY;42.039355;-74.067014;-5;1;42.039355,-74.067014
12571;Red Hook;NY;42.002691;-73.8442;-5;1;42.002691,-73.8442
14003;Alabama;NY;42.998052;-78.184813;-5;1;42.998052,-78.184813
12832;Granville;NY;43.376197;-73.31153;-5;1;43.376197,-73.31153
13032;Canastota;NY;43.086439;-75.76484;-5;1;43.086439,-75.76484
10047;New York;NY;40.780751;-73.977182;-5;1;40.780751,-73.977182
12921;Chazy;NY;44.88821;-73.43225;-5;1;44.88821,-73.43225
10922;Fort Montgomery;NY;41.334557;-73.99175;-5;1;41.334557,-73.99175
14415;Bellona;NY;42.757486;-77.02311;-5;1;42.757486,-77.02311
14892;Waverly;NY;42.023442;-76.53404;-5;1;42.023442,-76.53404
13335;Edmeston;NY;42.694896;-75.24214;-5;1;42.694896,-75.24214
12969;Owls Head;NY;44.711622;-74.09679;-5;1;44.711622,-74.09679
14131;Ransomville;NY;43.237855;-78.90884;-5;1;43.237855,-78.90884
13748;Conklin;NY;42.0553;-75.81219;-5;1;42.0553,-75.81219
12302;Schenectady;NY;42.862193;-73.96317;-5;1;42.862193,-73.96317
12566;Pine Bush;NY;41.61134;-74.32764;-5;1;41.61134,-74.32764
10095;New York;NY;40.748181;-73.988421;-5;1;40.748181,-73.988421
10164;New York;NY;40.780751;-73.977182;-5;1;40.780751,-73.977182
14477;Kent;NY;43.341512;-78.14128;-5;1;43.341512,-78.14128
13699;Potsdam;NY;44.496564;-75.072951;-5;1;44.496564,-75.072951
12486;Tillson;NY;41.831082;-74.07207;-5;1;41.831082,-74.07207
13020;Apulia Station;NY;42.823968;-76.062425;-5;1;42.823968,-76.062425
13053;Dryden;NY;42.483348;-76.27901;-5;1;42.483348,-76.27901
13303;Ava;NY;43.368235;-75.4688;-5;1;43.368235,-75.4688
14624;Rochester;NY;43.127195;-77.72465;-5;1;43.127195,-77.72465
14925;Elmira;NY;42.147285;-76.750888;-5;1;42.147285,-76.750888
10015;New York;NY;40.780751;-73.977182;-5;1;40.780751,-73.977182
13646;Hammond;NY;44.444242;-75.69227;-5;1;44.444242,-75.69227
13648;Harrisville;NY;44.168224;-75.29253;-5;1;44.168224,-75.29253
13786;Harpersfield;NY;42.445257;-74.70189;-5;1;42.445257,-74.70189
10536;Katonah;NY;41.265478;-73.68512;-5;1;41.265478,-73.68512
14029;Centerville;NY;42.474283;-78.247413;-5;1;42.474283,-78.247413
10451;Bronx;NY;40.819729;-73.9223;-5;1;40.819729,-73.9223
10974;Sloatsburg;NY;41.156095;-74.19214;-5;1;41.156095,-74.19214
11224;Brooklyn;NY;40.576589;-73.99172;-5;1;40.576589,-73.99172
12172;Stottville;NY;42.285749;-73.733532;-5;1;42.285749,-73.733532
10605;White Plains;NY;41.01002;-73.75158;-5;1;41.01002,-73.75158
10980;Stony Point;NY;41.231408;-74.01157;-5;1;41.231408,-74.01157
12161;South Bethlehem;NY;42.521038;-73.851898;-5;1;42.521038,-73.851898
12866;Saratoga Springs;NY;43.080399;-73.77038;-5;1;43.080399,-73.77038
11223;Brooklyn;NY;40.598142;-73.97229;-5;1;40.598142,-73.97229
10511;Buchanan;NY;41.260283;-73.94033;-5;1;41.260283,-73.94033
11752;Islip Terrace;NY;40.754386;-73.18326;-5;1;40.754386,-73.18326
12116;Maryland;NY;42.538589;-74.92185;-5;1;42.538589,-74.92185
13471;Taberg;NY;43.346517;-75.60493;-5;1;43.346517,-75.60493
12225;Albany;NY;42.614852;-73.970812;-5;1;42.614852,-73.970812
14757;Mayville;NY;42.226149;-79.48396;-5;1;42.226149,-79.48396
12879;Newcomb;NY;44.145678;-73.815204;-5;1;44.145678,-73.815204
12056;Duanesburg;NY;42.767853;-74.09083;-5;1;42.767853,-74.09083
12058;Earlton;NY;42.350557;-73.91978;-5;1;42.350557,-73.91978
12235;Albany;NY;42.614852;-73.970812;-5;1;42.614852,-73.970812
10041;New York;NY;40.703041999999996;-74.01009;-5;1;40.703042,-74.01009
14819;Cameron;NY;42.20928;-77.42796;-5;1;42.20928,-77.42796
10009;New York;NY;40.727092999999996;-73.97864;-5;1;40.727093,-73.97864
11722;Central Islip;NY;40.784874;-73.19924;-5;1;40.784874,-73.19924
12160;Sloansville;NY;42.757815;-74.34369;-5;1;42.757815,-74.34369
10260;New York;NY;40.780751;-73.977182;-5;1;40.780751,-73.977182
13152;Skaneateles;NY;42.897167;-76.38963;-5;1;42.897167,-76.38963
12052;Cropseyville;NY;42.74891;-73.49405;-5;1;42.74891,-73.49405
10269;New York;NY;40.780751;-73.977182;-5;1;40.780751,-73.977182
13607;Alexandria Bay;NY;44.328698;-75.93103;-5;1;44.328698,-75.93103
11405;Jamaica;NY;40.651378;-73.870779;-5;1;40.651378,-73.870779
12521;Craryville;NY;42.176216;-73.65036;-5;1;42.176216,-73.65036
14716;Brocton;NY;42.390802;-79.43873;-5;1;42.390802,-79.43873
11251;Brooklyn;NY;40.645099;-73.945032;-5;1;40.645099,-73.945032
12464;Phoenicia;NY;42.081269;-74.32629;-5;1;42.081269,-74.32629
14550;Silver Springs;NY;42.669499;-78.09375;-5;1;42.669499,-78.09375
14881;Slaterville Springs;NY;42.39534;-76.35211;-5;1;42.39534,-76.35211
13071;Genoa;NY;42.677418;-76.54154;-5;1;42.677418,-76.54154
10522;Dobbs Ferry;NY;41.012729;-73.86602;-5;1;41.012729,-73.86602
11235;Brooklyn;NY;40.583803;-73.95019;-5;1;40.583803,-73.95019
10212;New York;NY;40.780751;-73.977182;-5;1;40.780751,-73.977182
11242;Brooklyn;NY;40.645099;-73.945032;-5;1;40.645099,-73.945032
11725;Commack;NY;40.841522;-73.28001;-5;1;40.841522,-73.28001
12198;Wynantskill;NY;42.685311;-73.63801;-5;1;42.685311,-73.63801
12839;Hudson Falls;NY;43.316622;-73.5735;-5;1;43.316622,-73.5735
10021;New York;NY;40.76842;-73.96045;-5;1;40.76842,-73.96045
12551;Newburgh;NY;41.387822;-74.354699;-5;1;41.387822,-74.354699
12933;Ellenburg;NY;44.881962;-73.963279;-5;1;44.881962,-73.963279
12569;Pleasant Valley;NY;41.746469;-73.80414;-5;1;41.746469,-73.80414
14302;Niagara Falls;NY;43.32684;-78.830681;-5;1;43.32684,-78.830681
10303;Staten Island;NY;40.629448;-74.16239;-5;1;40.629448,-74.16239
12594;Wingdale;NY;41.646584;-73.56209;-5;1;41.646584,-73.56209
13120;Nedrow;NY;42.950501;-76.15797;-5;1;42.950501,-76.15797
13084;La Fayette;NY;42.883503;-76.10983;-5;1;42.883503,-76.10983
11933;Calverton;NY;40.933429;-72.74646;-5;1;40.933429,-72.74646
11428;Queens Village;NY;40.719981;-73.74127;-5;1;40.719981,-73.74127
12762;Mongaup Valley;NY;41.676676;-74.80674;-5;1;41.676676,-74.80674
13762;Endwell;NY;42.206745;-75.74488;-5;1;42.206745,-75.74488
10101;New York;NY;40.780751;-73.977182;-5;1;40.780751,-73.977182
11514;Carle Place;NY;40.750132;-73.61328;-5;1;40.750132,-73.61328
13661;Mannsville;NY;43.714545;-76.10465;-5;1;43.714545,-76.10465
10504;Armonk;NY;41.129908;-73.70352;-5;1;41.129908,-73.70352
12553;New Windsor;NY;41.46359;-74.05975;-5;1;41.46359,-74.05975
13505;Utica;NY;43.087169;-75.260259;-5;1;43.087169,-75.260259
12117;Mayfield;NY;43.146907;-74.23466;-5;1;43.146907,-74.23466
13691;Theresa;NY;44.216969;-75.79671;-5;1;44.216969,-75.79671
13737;Bible School Park;NY;42.080494;-76.097288;-5;1;42.080494,-76.097288
14427;Castile;NY;42.63529;-78.05135;-5;1;42.63529,-78.05135
14545;Scottsburg;NY;42.664904;-77.71275;-5;1;42.664904,-77.71275
14786;West Clarksville;NY;42.12267;-78.221332;-5;1;42.12267,-78.221332
10027;New York;NY;40.812665;-73.95499;-5;1;40.812665,-73.95499
10464;Bronx;NY;40.857017;-73.78903;-5;1;40.857017,-73.78903
14571;Waterport;NY;43.34653;-78.25412;-5;1;43.34653,-78.25412
14854;Jacksonville;NY;42.50632;-76.608222;-5;1;42.50632,-76.608222
10598;Yorktown Heights;NY;41.296874;-73.78934;-5;1;41.296874,-73.78934
11956;New Suffolk;NY;40.991836;-72.47505;-5;1;40.991836,-72.47505
13078;Jamesville;NY;42.973991;-76.07493;-5;1;42.973991,-76.07493
13682;Rodman;NY;43.842808;-75.90347;-5;1;43.842808,-75.90347
14210;Buffalo;NY;42.866708;-78.83139;-5;1;42.866708,-78.83139
14673;Rochester;NY;43.286024;-77.684264;-5;1;43.286024,-77.684264
10553;Mount Vernon;NY;40.909288;-73.8215;-5;1;40.909288,-73.8215
10805;New Rochelle;NY;40.897783;-73.77933;-5;1;40.897783,-73.77933
11565;Malverne;NY;40.675249;-73.67298;-5;1;40.675249,-73.67298
10517;Crompond;NY;41.300561;-73.861217;-5;1;41.300561,-73.861217
12878;Stony Creek;NY;43.426652;-73.96174;-5;1;43.426652,-73.96174
12043;Cobleskill;NY;42.696926;-74.52436;-5;1;42.696926,-74.52436
12082;Grafton;NY;42.772624;-73.446834;-5;1;42.772624,-73.446834
13320;Cherry Valley;NY;42.772775;-74.7359;-5;1;42.772775,-74.7359
14808;Atlanta;NY;42.560553;-77.47257;-5;1;42.560553,-77.47257
11931;Aquebogue;NY;40.922326;-72.637078;-5;1;40.922326,-72.637078
12307;Schenectady;NY;42.804076;-73.93571;-5;1;42.804076,-73.93571
14034;Collins;NY;42.498791;-78.8835;-5;1;42.498791,-78.8835
14132;Sanborn;NY;43.140056;-78.88297;-5;1;43.140056,-78.88297
14441;Dresden;NY;42.684588;-76.95775;-5;1;42.684588,-76.95775
10185;New York;NY;40.780751;-73.977182;-5;1;40.780751,-73.977182
11599;Garden City;NY;40.607574;-73.742691;-5;1;40.607574,-73.742691
14487;Livonia;NY;42.809908;-77.65301;-5;1;42.809908,-77.65301
13739;Bloomville;NY;42.364673;-74.78034;-5;1;42.364673,-74.78034
13792;Morris;NY;42.509167;-75.208242;-5;1;42.509167,-75.208242
14882;Lansing;NY;42.564191;-76.54077;-5;1;42.564191,-76.54077
13832;Plymouth;NY;42.650584;-75.65761;-5;1;42.650584,-75.65761
10165;New York;NY;40.752354;-73.9789;-5;1;40.752354,-73.9789
12841;Huletts Landing;NY;43.642332;-73.50948;-5;1;43.642332,-73.50948
14489;Lyons;NY;43.076715;-76.99231;-5;1;43.076715,-76.99231
11374;Rego Park;NY;40.724945;-73.8609;-5;1;40.724945,-73.8609
13808;Morris;NY;42.532969;-75.25536;-5;1;42.532969,-75.25536
14261;Buffalo;NY;42.768413;-78.887094;-5;1;42.768413,-78.887094
14870;Painted Post;NY;42.173481;-77.11844;-5;1;42.173481,-77.11844
12449;Lake Katrine;NY;41.993639;-73.99843;-5;1;41.993639,-73.99843
12857;Olmstedville;NY;43.795443;-73.93994;-5;1;43.795443,-73.93994
14588;Willard;NY;42.683451;-76.872442;-5;1;42.683451,-76.872442
12764;Narrowsburg;NY;41.588604;-74.99385;-5;1;41.588604,-74.99385
14516;North Rose;NY;43.197378;-76.91443;-5;1;43.197378,-76.91443
14815;Bradford;NY;42.383304;-77.08762;-5;1;42.383304,-77.08762
11762;Massapequa Park;NY;40.68505;-73.44681;-5;1;40.68505,-73.44681
12917;Burke;NY;44.915973;-74.16565;-5;1;44.915973,-74.16565
10282;New York;NY;40.717179;-74.01433;-5;1;40.717179,-74.01433
13314;Brookfield;NY;42.832184;-75.32106;-5;1;42.832184,-75.32106
12207;Albany;NY;42.653979;-73.74833;-5;1;42.653979,-73.74833
11715;Blue Point;NY;40.74897;-73.03436;-5;1;40.74897,-73.03436
13066;Fayetteville;NY;43.028516;-76.00876;-5;1;43.028516,-76.00876
13346;Hamilton;NY;42.820826;-75.54012;-5;1;42.820826,-75.54012
10985;Thompson Ridge;NY;41.580793;-74.37451;-5;1;41.580793,-74.37451
11023;Great Neck;NY;40.798839;-73.73352;-5;1;40.798839,-73.73352
14729;East Otto;NY;42.382899;-78.72101;-5;1;42.382899,-78.72101
12229;Albany;NY;42.614852;-73.970812;-5;1;42.614852,-73.970812
13738;Blodgett Mills;NY;42.567313;-76.123795;-5;1;42.567313,-76.123795
11005;Floral Park;NY;40.756983;-73.7148;-5;1;40.756983,-73.7148
11777;Port Jefferson;NY;40.946103;-73.06222;-5;1;40.946103,-73.06222
12246;Albany;NY;42.647079;-73.750314;-5;1;42.647079,-73.750314
13652;Hermon;NY;44.436004;-75.22228;-5;1;44.436004,-75.22228
10036;New York;NY;40.759511;-73.99019;-5;1;40.759511,-73.99019
13859;Wells Bridge;NY;42.367765;-75.24718;-5;1;42.367765,-75.24718
14522;Palmyra;NY;43.063858;-77.2223;-5;1;43.063858,-77.2223
10174;New York;NY;40.751656;-73.97516;-5;1;40.751656,-73.97516
11363;Little Neck;NY;40.772636;-73.74644;-5;1;40.772636,-73.74644
12143;Ravena;NY;42.46915;-73.82956;-5;1;42.46915,-73.82956
13041;Clay;NY;43.1835;-76.18002;-5;1;43.1835,-76.18002
14085;Lake View;NY;42.718308;-78.9372;-5;1;42.718308,-78.9372
13485;West Edmeston;NY;42.766057;-75.32353;-5;1;42.766057,-75.32353
10175;New York;NY;40.754305;-73.979782;-5;1;40.754305,-73.979782
12755;Ellenburg;NY;44.842975;-73.973533;-5;1;44.842975,-73.973533
14777;Rushford;NY;42.385744;-78.23754;-5;1;42.385744,-78.23754
13329;Dolgeville;NY;43.11545;-74.74379;-5;1;43.11545,-74.74379
10279;New York;NY;40.713062;-74.00857;-5;1;40.713062,-74.00857
10914;Blooming Grove;NY;41.464867;-74.255646;-5;1;41.464867,-74.255646
12422;Durham;NY;42.390291;-74.20164;-5;1;42.390291,-74.20164
10155;New York;NY;40.761104;-73.968036;-5;1;40.761104,-73.968036
11217;Brooklyn;NY;40.68209;-73.97783;-5;1;40.68209,-73.97783
11588;Uniondale;NY;40.754757;-73.601772;-5;1;40.754757,-73.601772
12071;Fultonham;NY;42.565907;-74.41457;-5;1;42.565907,-74.41457
12257;Albany;NY;42.614852;-73.970812;-5;1;42.614852,-73.970812
14525;Pavilion;NY;42.876222;-78.00056;-5;1;42.876222,-78.00056
14059;Elma;NY;42.834159;-78.64246;-5;1;42.834159,-78.64246
14151;Tonawanda;NY;42.768413;-78.887094;-5;1;42.768413,-78.887094
14209;Buffalo;NY;42.913257;-78.86612;-5;1;42.913257,-78.86612
14417;Geneseo;NY;42.834813;-77.715406;-5;1;42.834813,-77.715406
10573;Port Chester;NY;41.010376;-73.67326;-5;1;41.010376,-73.67326
12128;Newtonville;NY;42.724978;-73.764296;-5;1;42.724978,-73.764296
11003;Elmont;NY;40.700529;-73.70223;-5;1;40.700529,-73.70223
10911;Bear Mountain;NY;41.160945;-74.060826;-5;1;41.160945,-74.060826
11355;Flushing;NY;40.749463;-73.81941;-5;1;40.749463,-73.81941
11577;Roslyn Heights;NY;40.785642;-73.64006;-5;1;40.785642,-73.64006
13365;Little Falls;NY;43.053176;-74.84685;-5;1;43.053176,-74.84685
13807;Milford;NY;42.606209;-74.97261;-5;1;42.606209,-74.97261
14510;Mount Morris;NY;42.692608;-77.87663;-5;1;42.692608,-77.87663
14607;Rochester;NY;43.149863;-77.58962;-5;1;43.149863,-77.58962
12429;Esopus;NY;41.816628;-73.97824;-5;1;41.816628,-73.97824
12457;Mount Tremper;NY;42.038539;-74.23905;-5;1;42.038539,-74.23905
12986;Tupper Lake;NY;44.220344;-74.46299;-5;1;44.220344,-74.46299
13628;Deferiet;NY;43.885519;-75.798319;-5;1;43.885519,-75.798319
10576;Pound Ridge;NY;41.212954;-73.58409;-5;1;41.212954,-73.58409
11581;Valley Stream;NY;40.651733;-73.71079;-5;1;40.651733,-73.71079
13431;Poland;NY;43.21574;-75.08534;-5;1;43.21574,-75.08534
13674;Pierrepont Manor;NY;43.73345;-76.054313;-5;1;43.73345,-76.054313
